[{"id": "HVFJjL-NlcihpJ8SbDDMoA", "alias": "wasabi-bistro-livermore", "name": "Wasabi Bistro", "image_url": "https://s3-media2.fl.yelpcdn.com/bphoto/ZfhvoFwatbmzidcU6mqgLg/o.jpg", "is_closed": false, "url": "https://www.yelp.com/biz/wasabi-bistro-livermore?adjust_creative=xeSzjzfHY0IaghaPzcqsFA&utm_campaign=yelp_api_v3&utm_medium=api_v3_business_search&utm_source=xeSzjzfHY0IaghaPzcqsFA", "review_count": 1190, "categories": [{"alias": "japanese", "title": "Japanese"}, {"alias": "sushi", "title": "Sushi Bars"}, {"alias": "seafood", "title": "Seafood"}], "rating": 4.0, "coordinates": {"latitude": 37.705833, "longitude": -121.740718}, "transactions": ["pickup", "delivery"], "price": "$$", "location": {"address1": "922 Larkspur Dr", "address2": "Ste B", "address3": "", "city": "Livermore", "zip_code": "94551", "country": "US", "state": "CA", "display_address": ["922 Larkspur Dr", "Ste B", "Livermore, CA 94551"]}, "phone": "+19255792952", "display_phone": "(925) 579-2952", "distance": 4098.925263465344}, {"id": "L7Fx8RNlEe942jBi0b0sCA", "alias": "tommy-katsu-livermore", "name": "Tommy Katsu", "image_url": "https://s3-media2.fl.yelpcdn.com/bphoto/rnLNDcZ42xzh0Fcdxmc1nA/o.jpg", "is_closed": false, "url": "https://www.yelp.com/biz/tommy-katsu-livermore?adjust_creative=xeSzjzfHY0IaghaPzcqsFA&utm_campaign=yelp_api_v3&utm_medium=api_v3_business_search&utm_source=xeSzjzfHY0IaghaPzcqsFA", "review_count": 228, "categories": [{"alias": "japanese", "title": "Japanese"}, {"alias": "sushi", "title": "Sushi Bars"}, {"alias": "asianfusion", "title": "Asian Fusion"}], "rating": 4.5, "coordinates": {"latitude": 37.6998473121529, "longitude": -121.77212566502}, "transactions": ["pickup", "delivery"], "price": "$$", "location": {"address1": "2476 Las Positas Rd", "address2": "", "address3": null, "city": "Livermore", "zip_code": "94551", "country": "US", "state": "CA", "display_address": ["2476 Las Positas Rd", "Livermore, CA 94551"]}, "phone": "+19255835289", "display_phone": "(925) 583-5289", "distance": 2331.1198461946115}, {"id": "qy3odDKGWuzh0dMnqIXIxQ", "alias": "roppongi-sushi-livermore", "name": "Roppongi Sushi", "image_url": "https://s3-media3.fl.yelpcdn.com/bphoto/TwUiTeQWz_ZrJXqm4o0hdQ/o.jpg", "is_closed": false, "url": "https://www.yelp.com/biz/roppongi-sushi-livermore?adjust_creative=xeSzjzfHY0IaghaPzcqsFA&utm_campaign=yelp_api_v3&utm_medium=api_v3_business_search&utm_source=xeSzjzfHY0IaghaPzcqsFA", "review_count": 414, "categories": [{"alias": "japanese", "title": "Japanese"}, {"alias": "sushi", "title": "Sushi Bars"}], "rating": 4.0, "coordinates": {"latitude": 37.68185, "longitude": -121.76906}, "transactions": ["pickup", "delivery"], "price": "$$", "location": {"address1": "2206 1st St", "address2": "", "address3": "", "city": "Livermore", "zip_code": "94550", "country": "US", "state": "CA", "display_address": ["2206 1st St", "Livermore, CA 94550"]}, "phone": "+19255835101", "display_phone": "(925) 583-5101", "distance": 446.14877250720536}, {"id": "wse-Ef6mHk0MzsxslTYjww", "alias": "amakara-dublin", "name": "Amakara", "image_url": "https://s3-media1.fl.yelpcdn.com/bphoto/ffDQGjLXy1xk66yK8RpysA/o.jpg", "is_closed": false, "url": "https://www.yelp.com/biz/amakara-dublin?adjust_creative=xeSzjzfHY0IaghaPzcqsFA&utm_campaign=yelp_api_v3&utm_medium=api_v3_business_search&utm_source=xeSzjzfHY0IaghaPzcqsFA", "review_count": 3122, "categories": [{"alias": "sushi", "title": "Sushi Bars"}, {"alias": "japanese", "title": "Japanese"}], "rating": 4.0, "coordinates": {"latitude": 37.704023, "longitude": -121.929133}, "transactions": ["pickup", "delivery"], "price": "$$", "location": {"address1": "7568 Dublin Blvd", "address2": "", "address3": "", "city": "Dublin", "zip_code": "94568", "country": "US", "state": "CA", "display_address": ["7568 Dublin Blvd", "Dublin, CA 94568"]}, "phone": "+19258038485", "display_phone": "(925) 803-8485", "distance": 14066.122597085916}, {"id": "hrIOPvSc4s3jXfIhn4M1pg", "alias": "sushi-zone-livermore", "name": "Sushi Zone", "image_url": "https://s3-media1.fl.yelpcdn.com/bphoto/FCkSw6S4wlRNM7skHZEUIQ/o.jpg", "is_closed": false, "url": "https://www.yelp.com/biz/sushi-zone-livermore?adjust_creative=xeSzjzfHY0IaghaPzcqsFA&utm_campaign=yelp_api_v3&utm_medium=api_v3_business_search&utm_source=xeSzjzfHY0IaghaPzcqsFA", "review_count": 290, "categories": [{"alias": "sushi", "title": "Sushi Bars"}, {"alias": "japanese", "title": "Japanese"}], "rating": 4.0, "coordinates": {"latitude": 37.6800349, "longitude": -121.7467307}, "transactions": ["pickup", "delivery"], "price": "$$", "location": {"address1": "4094 East Ave", "address2": "", "address3": "", "city": "Livermore", "zip_code": "94550", "country": "US", "state": "CA", "display_address": ["4094 East Ave", "Livermore, CA 94550"]}, "phone": "+19254556868", "display_phone": "(925) 455-6868", "distance": 2236.528457088544}, {"id": "7BxIhhEigJd7uacRD9ddeA", "alias": "kobe-japan-restaurant-livermore-livermore", "name": "Kobe Japan Restaurant - Livermore", "image_url": "https://s3-media3.fl.yelpcdn.com/bphoto/FQPvy1piPdq27I7roBtsAg/o.jpg", "is_closed": false, "url": "https://www.yelp.com/biz/kobe-japan-restaurant-livermore-livermore?adjust_creative=xeSzjzfHY0IaghaPzcqsFA&utm_campaign=yelp_api_v3&utm_medium=api_v3_business_search&utm_source=xeSzjzfHY0IaghaPzcqsFA", "review_count": 361, "categories": [{"alias": "steak", "title": "Steakhouses"}, {"alias": "sushi", "title": "Sushi Bars"}, {"alias": "teppanyaki", "title": "Teppanyaki"}], "rating": 4.0, "coordinates": {"latitude": 37.6936836242676, "longitude": -121.746757507324}, "transactions": ["pickup", "delivery"], "price": "$$", "location": {"address1": "4193 1st St", "address2": "", "address3": "", "city": "Livermore", "zip_code": "94551", "country": "US", "state": "CA", "display_address": ["4193 1st St", "Livermore, CA 94551"]}, "phone": "+19254548889", "display_phone": "(925) 454-8889", "distance": 2799.6809143175697}, {"id": "L90tG75-PYvCa-ISLUkxMw", "alias": "kiseki-livermore-3", "name": "Kiseki", "image_url": "https://s3-media1.fl.yelpcdn.com/bphoto/Mr8vniTEccZ0vU2xYZwrww/o.jpg", "is_closed": false, "url": "https://www.yelp.com/biz/kiseki-livermore-3?adjust_creative=xeSzjzfHY0IaghaPzcqsFA&utm_campaign=yelp_api_v3&utm_medium=api_v3_business_search&utm_source=xeSzjzfHY0IaghaPzcqsFA", "review_count": 219, "categories": [{"alias": "izakaya", "title": "Izakaya"}, {"alias": "ramen", "title": "Ramen"}, {"alias": "sushi", "title": "Sushi Bars"}], "rating": 4.5, "coordinates": {"latitude": 37.718008, "longitude": -121.724625}, "transactions": ["pickup", "delivery"], "price": "$$", "location": {"address1": "1510 N Vasco Rd", "address2": null, "address3": "", "city": "Livermore", "zip_code": "94551", "country": "US", "state": "CA", "display_address": ["1510 N Vasco Rd", "Livermore, CA 94551"]}, "phone": "+19252929664", "display_phone": "(925) 292-9664", "distance": 6053.328029763412}, {"id": "Pc-h8hxVI2hifRxEz0kJlA", "alias": "hanabishi-japanese-cuisine-livermore", "name": "Hanabishi Japanese Cuisine", "image_url": "https://s3-media2.fl.yelpcdn.com/bphoto/KBV8fTmp5VWtxGZG9bYzRg/o.jpg", "is_closed": false, "url": "https://www.yelp.com/biz/hanabishi-japanese-cuisine-livermore?adjust_creative=xeSzjzfHY0IaghaPzcqsFA&utm_campaign=yelp_api_v3&utm_medium=api_v3_business_search&utm_source=xeSzjzfHY0IaghaPzcqsFA", "review_count": 115, "categories": [{"alias": "japanese", "title": "Japanese"}], "rating": 4.0, "coordinates": {"latitude": 37.67771, "longitude": -121.7847}, "transactions": ["delivery"], "price": "$$", "location": {"address1": "979 E Stanley Blvd", "address2": "", "address3": "", "city": "Livermore", "zip_code": "94550", "country": "US", "state": "CA", "display_address": ["979 E Stanley Blvd", "Livermore, CA 94550"]}, "phone": "+19254551114", "display_phone": "(925) 455-1114", "distance": 1083.4790450719347}, {"id": "l0jSb_SKfJYi_G7aZ4_wvw", "alias": "kokolo-donburi-livermore", "name": "KoKoLo Donburi", "image_url": "https://s3-media3.fl.yelpcdn.com/bphoto/jeMaGWbE-z7aoR1mEwEfgw/o.jpg", "is_closed": false, "url": "https://www.yelp.com/biz/kokolo-donburi-livermore?adjust_creative=xeSzjzfHY0IaghaPzcqsFA&utm_campaign=yelp_api_v3&utm_medium=api_v3_business_search&utm_source=xeSzjzfHY0IaghaPzcqsFA", "review_count": 131, "categories": [{"alias": "japanese", "title": "Japanese"}], "rating": 4.5, "coordinates": {"latitude": 37.68332, "longitude": -121.76655}, "transactions": ["pickup", "delivery"], "price": "$$", "location": {"address1": "2495 First St", "address2": "", "address3": null, "city": "Livermore", "zip_code": "94550", "country": "US", "state": "CA", "display_address": ["2495 First St", "Livermore, CA 94550"]}, "phone": "+19252924423", "display_phone": "(925) 292-4423", "distance": 717.1003951523406}, {"id": "2U_41Aa61CQwFy8qD2UX6Q", "alias": "ari-sushi-dublin", "name": "Ari Sushi", "image_url": "https://s3-media2.fl.yelpcdn.com/bphoto/FG_tRfPOqdQT-RTb4uNeBw/o.jpg", "is_closed": false, "url": "https://www.yelp.com/biz/ari-sushi-dublin?adjust_creative=xeSzjzfHY0IaghaPzcqsFA&utm_campaign=yelp_api_v3&utm_medium=api_v3_business_search&utm_source=xeSzjzfHY0IaghaPzcqsFA", "review_count": 160, "categories": [{"alias": "sushi", "title": "Sushi Bars"}], "rating": 4.5, "coordinates": {"latitude": 37.70767049304907, "longitude": -121.8738389}, "transactions": [], "price": "$$", "location": {"address1": "4480 Tassajara Rd B", "address2": "Ste B", "address3": null, "city": "Dublin", "zip_code": "94568", "country": "US", "state": "CA", "display_address": ["4480 Tassajara Rd B", "Ste B", "Dublin, CA 94568"]}, "phone": "+19255606350", "display_phone": "(925) 560-6350", "distance": 9476.937781449635}, {"id": "gCJtOHYl4GxfPrpWSEeBnQ", "alias": "manpuku-livermore", "name": "Manpuku", "image_url": "https://s3-media3.fl.yelpcdn.com/bphoto/8fdX7EtItyrYGisp-SzeqQ/o.jpg", "is_closed": false, "url": "https://www.yelp.com/biz/manpuku-livermore?adjust_creative=xeSzjzfHY0IaghaPzcqsFA&utm_campaign=yelp_api_v3&utm_medium=api_v3_business_search&utm_source=xeSzjzfHY0IaghaPzcqsFA", "review_count": 303, "categories": [{"alias": "sushi", "title": "Sushi Bars"}, {"alias": "japanese", "title": "Japanese"}, {"alias": "seafood", "title": "Seafood"}], "rating": 3.5, "coordinates": {"latitude": 37.6972588, "longitude": -121.7433327}, "transactions": ["delivery"], "price": "$$", "location": {"address1": "4363 First St", "address2": null, "address3": "", "city": "Livermore", "zip_code": "94550", "country": "US", "state": "CA", "display_address": ["4363 First St", "Livermore, CA 94550"]}, "phone": "+19253719038", "display_phone": "(925) 371-9038", "distance": 3169.6574936900747}, {"id": "CftVJutZTRy274K712pbIg", "alias": "kura-revolving-sushi-bar-pleasanton", "name": "Kura Revolving Sushi Bar", "image_url": "https://s3-media2.fl.yelpcdn.com/bphoto/lTrqTZHxV6au2WIUlEJc3g/o.jpg", "is_closed": false, "url": "https://www.yelp.com/biz/kura-revolving-sushi-bar-pleasanton?adjust_creative=xeSzjzfHY0IaghaPzcqsFA&utm_campaign=yelp_api_v3&utm_medium=api_v3_business_search&utm_source=xeSzjzfHY0IaghaPzcqsFA", "review_count": 846, "categories": [{"alias": "sushi", "title": "Sushi Bars"}, {"alias": "conveyorsushi", "title": "Conveyor Belt Sushi"}], "rating": 3.0, "coordinates": {"latitude": 37.6969201202721, "longitude": -121.84950576110708}, "transactions": ["delivery"], "price": "$$", "location": {"address1": "2725 Stoneridge Dr", "address2": "Ste 113", "address3": null, "city": "Pleasanton", "zip_code": "94588", "country": "US", "state": "CA", "display_address": ["2725 Stoneridge Dr", "Ste 113", "Pleasanton, CA 94588"]}, "phone": "+19253988957", "display_phone": "(925) 398-8957", "distance": 7069.90081675493}, {"id": "7v7ZZbGeLo9J-3xExN6lTg", "alias": "waynes-sushi-bistro-pleasanton", "name": "Wayne's Sushi Bistro", "image_url": "https://s3-media2.fl.yelpcdn.com/bphoto/ALXZRny7A7AhyrgHuIAHjg/o.jpg", "is_closed": false, "url": "https://www.yelp.com/biz/waynes-sushi-bistro-pleasanton?adjust_creative=xeSzjzfHY0IaghaPzcqsFA&utm_campaign=yelp_api_v3&utm_medium=api_v3_business_search&utm_source=xeSzjzfHY0IaghaPzcqsFA", "review_count": 427, "categories": [{"alias": "sushi", "title": "Sushi Bars"}, {"alias": "japanese", "title": "Japanese"}, {"alias": "seafood", "title": "Seafood"}], "rating": 4.5, "coordinates": {"latitude": 37.6622484558456, "longitude": -121.85528321571}, "transactions": ["pickup", "delivery"], "price": "$$", "location": {"address1": "3500 Bernal Ave", "address2": "Ste 130", "address3": "", "city": "Pleasanton", "zip_code": "94566", "country": "US", "state": "CA", "display_address": ["3500 Bernal Ave", "Ste 130", "Pleasanton, CA 94566"]}, "phone": "+19254257682", "display_phone": "(925) 425-7682", "distance": 7520.647556039801}, {"id": "RfNZTXLxt-20NU8cB2RXQw", "alias": "komyo-sushi-dublin", "name": "Komyo Sushi", "image_url": "https://s3-media2.fl.yelpcdn.com/bphoto/ZOe_jJ-zyfMUhTrEckS8mQ/o.jpg", "is_closed": false, "url": "https://www.yelp.com/biz/komyo-sushi-dublin?adjust_creative=xeSzjzfHY0IaghaPzcqsFA&utm_campaign=yelp_api_v3&utm_medium=api_v3_business_search&utm_source=xeSzjzfHY0IaghaPzcqsFA", "review_count": 53, "categories": [{"alias": "sushi", "title": "Sushi Bars"}, {"alias": "japanese", "title": "Japanese"}], "rating": 4.5, "coordinates": {"latitude": 37.706167, "longitude": -121.852001}, "transactions": [], "location": {"address1": "2700 Dublin Blvd", "address2": null, "address3": "", "city": "Dublin", "zip_code": "94568", "country": "US", "state": "CA", "display_address": ["2700 Dublin Blvd", "Dublin, CA 94568"]}, "phone": "+19255871599", "display_phone": "(925) 587-1599", "distance": 7644.056850582282}, {"id": "4vlqIzOj7Kq9MzW9t3bpaA", "alias": "kaki-sushi-pleasanton", "name": "Kaki Sushi", "image_url": "https://s3-media1.fl.yelpcdn.com/bphoto/TVnbh8Jm71gyTLFm1RJWzg/o.jpg", "is_closed": false, "url": "https://www.yelp.com/biz/kaki-sushi-pleasanton?adjust_creative=xeSzjzfHY0IaghaPzcqsFA&utm_campaign=yelp_api_v3&utm_medium=api_v3_business_search&utm_source=xeSzjzfHY0IaghaPzcqsFA", "review_count": 737, "categories": [{"alias": "japanese", "title": "Japanese"}, {"alias": "sushi", "title": "Sushi Bars"}], "rating": 4.0, "coordinates": {"latitude": 37.69048, "longitude": -121.87742}, "transactions": ["delivery"], "price": "$$", "location": {"address1": "3120 Santa Rita Rd", "address2": "Ste G", "address3": "", "city": "Pleasanton", "zip_code": "94566", "country": "US", "state": "CA", "display_address": ["3120 Santa Rita Rd", "Ste G", "Pleasanton, CA 94566"]}, "phone": "+19254844827", "display_phone": "(925) 484-4827", "distance": 9321.881843253253}, {"id": "1gusbKoz7XaeBLFu51RSig", "alias": "nara-sushi-dublin", "name": "Nara Sushi", "image_url": "https://s3-media3.fl.yelpcdn.com/bphoto/SfcqTgqj_oEWThuSZUPHCw/o.jpg", "is_closed": false, "url": "https://www.yelp.com/biz/nara-sushi-dublin?adjust_creative=xeSzjzfHY0IaghaPzcqsFA&utm_campaign=yelp_api_v3&utm_medium=api_v3_business_search&utm_source=xeSzjzfHY0IaghaPzcqsFA", "review_count": 93, "categories": [{"alias": "japanese", "title": "Japanese"}, {"alias": "sushi", "title": "Sushi Bars"}], "rating": 4.0, "coordinates": {"latitude": 37.70521, "longitude": -121.87596}, "transactions": ["pickup", "delivery"], "price": "$$", "location": {"address1": "4288 Dublin Blvd", "address2": "Ste 109", "address3": "", "city": "Dublin", "zip_code": "94568", "country": "US", "state": "CA", "display_address": ["4288 Dublin Blvd", "Ste 109", "Dublin, CA 94568"]}, "phone": "+19258287765", "display_phone": "(925) 828-7765", "distance": 9536.922125558372}, {"id": "d_Ab-aoloOIJM8WvVxB5nQ", "alias": "yuyake-dan-dan-japanese-tapas-pleasanton", "name": "Yuyake Dan Dan Japanese Tapas", "image_url": "https://s3-media4.fl.yelpcdn.com/bphoto/bTdWFO73Zl1GIPU1Y23Hpg/o.jpg", "is_closed": false, "url": "https://www.yelp.com/biz/yuyake-dan-dan-japanese-tapas-pleasanton?adjust_creative=xeSzjzfHY0IaghaPzcqsFA&utm_campaign=yelp_api_v3&utm_medium=api_v3_business_search&utm_source=xeSzjzfHY0IaghaPzcqsFA", "review_count": 219, "categories": [{"alias": "izakaya", "title": "Izakaya"}], "rating": 4.0, "coordinates": {"latitude": 37.69590696971371, "longitude": -121.92973078442348}, "transactions": ["pickup", "restaurant_reservation", "delivery"], "location": {"address1": "2457 Stoneridge Mall Rd", "address2": "", "address3": null, "city": "Pleasanton", "zip_code": "94588", "country": "US", "state": "CA", "display_address": ["2457 Stoneridge Mall Rd", "Pleasanton, CA 94588"]}, "phone": "+19255236660", "display_phone": "(925) 523-6660", "distance": 13967.783879243498}, {"id": "3C8VwDIFYtB30gSk-0g3vw", "alias": "bamboo-sushi-san-ramon-2", "name": "Bamboo Sushi", "image_url": "https://s3-media3.fl.yelpcdn.com/bphoto/aOqr9HhBTxOSFPjmQuh-wg/o.jpg", "is_closed": false, "url": "https://www.yelp.com/biz/bamboo-sushi-san-ramon-2?adjust_creative=xeSzjzfHY0IaghaPzcqsFA&utm_campaign=yelp_api_v3&utm_medium=api_v3_business_search&utm_source=xeSzjzfHY0IaghaPzcqsFA", "review_count": 295, "categories": [{"alias": "sushi", "title": "Sushi Bars"}, {"alias": "japanese", "title": "Japanese"}, {"alias": "asianfusion", "title": "Asian Fusion"}], "rating": 3.5, "coordinates": {"latitude": 37.7635349698591, "longitude": -121.959637326459}, "transactions": ["delivery"], "price": "$$", "location": {"address1": "6000 Bollinger Canyon Rd", "address2": "Ste 2201", "address3": "", "city": "San Ramon", "zip_code": "94583", "country": "US", "state": "CA", "display_address": ["6000 Bollinger Canyon Rd", "Ste 2201", "San Ramon, CA 94583"]}, "phone": "+19253596843", "display_phone": "(925) 359-6843", "distance": 18963.92173120783}, {"id": "FJ8ODwd3ICKKze3vbRRJBA", "alias": "sushi-hanabi-pleasanton-2", "name": "Sushi Hanabi", "image_url": "https://s3-media3.fl.yelpcdn.com/bphoto/jY_8pd_Nygn3DcpZeE8EtQ/o.jpg", "is_closed": false, "url": "https://www.yelp.com/biz/sushi-hanabi-pleasanton-2?adjust_creative=xeSzjzfHY0IaghaPzcqsFA&utm_campaign=yelp_api_v3&utm_medium=api_v3_business_search&utm_source=xeSzjzfHY0IaghaPzcqsFA", "review_count": 473, "categories": [{"alias": "japanese", "title": "Japanese"}, {"alias": "sushi", "title": "Sushi Bars"}], "rating": 4.0, "coordinates": {"latitude": 37.665968, "longitude": -121.8738955}, "transactions": ["delivery"], "price": "$$", "location": {"address1": "927 Main St", "address2": "Ste A", "address3": "", "city": "Pleasanton", "zip_code": "94566", "country": "US", "state": "CA", "display_address": ["927 Main St", "Ste A", "Pleasanton, CA 94566"]}, "phone": "+19255963645", "display_phone": "(925) 596-3645", "distance": 9042.321432139044}, {"id": "JTDE-fIL7gzBQ88Ql2u-hQ", "alias": "yanagi-sushi-and-grill-dublin", "name": "Yanagi Sushi & Grill", "image_url": "https://s3-media2.fl.yelpcdn.com/bphoto/ROe1t9DfmTMOEshhdJpglg/o.jpg", "is_closed": false, "url": "https://www.yelp.com/biz/yanagi-sushi-and-grill-dublin?adjust_creative=xeSzjzfHY0IaghaPzcqsFA&utm_campaign=yelp_api_v3&utm_medium=api_v3_business_search&utm_source=xeSzjzfHY0IaghaPzcqsFA", "review_count": 856, "categories": [{"alias": "sushi", "title": "Sushi Bars"}, {"alias": "japanese", "title": "Japanese"}, {"alias": "seafood", "title": "Seafood"}], "rating": 3.5, "coordinates": {"latitude": 37.704705, "longitude": -121.911231}, "transactions": ["pickup"], "price": "$$", "location": {"address1": "6599 Dublin Blvd", "address2": "", "address3": "", "city": "Dublin", "zip_code": "94568", "country": "US", "state": "CA", "display_address": ["6599 Dublin Blvd", "Dublin, CA 94568"]}, "phone": "+19255569575", "display_phone": "(925) 556-9575", "distance": 12543.338106757503}, {"id": "xPPfnHhs49TiPCHBsKa_5w", "alias": "mao-izakaya-and-sushi-dublin", "name": "Mao Izakaya & Sushi", "image_url": "https://s3-media1.fl.yelpcdn.com/bphoto/lgsYHbqhHfhB3LwQfPnWLQ/o.jpg", "is_closed": false, "url": "https://www.yelp.com/biz/mao-izakaya-and-sushi-dublin?adjust_creative=xeSzjzfHY0IaghaPzcqsFA&utm_campaign=yelp_api_v3&utm_medium=api_v3_business_search&utm_source=xeSzjzfHY0IaghaPzcqsFA", "review_count": 84, "categories": [{"alias": "izakaya", "title": "Izakaya"}, {"alias": "sushi", "title": "Sushi Bars"}], "rating": 4.0, "coordinates": {"latitude": 37.705044, "longitude": -121.934889}, "transactions": [], "location": {"address1": "7222 Regional St", "address2": "", "address3": null, "city": "Dublin", "zip_code": "94568", "country": "US", "state": "CA", "display_address": ["7222 Regional St", "Dublin, CA 94568"]}, "phone": "+19253615555", "display_phone": "(925) 361-5555", "distance": 14586.659524307966}, {"id": "5DtGQ7MohEKSIIA6TY7gyw", "alias": "hawaiian-poke-dublin", "name": "Hawaiian Poke", "image_url": "https://s3-media4.fl.yelpcdn.com/bphoto/bN0M1FV39vfF5wYnwtIi7A/o.jpg", "is_closed": false, "url": "https://www.yelp.com/biz/hawaiian-poke-dublin?adjust_creative=xeSzjzfHY0IaghaPzcqsFA&utm_campaign=yelp_api_v3&utm_medium=api_v3_business_search&utm_source=xeSzjzfHY0IaghaPzcqsFA", "review_count": 550, "categories": [{"alias": "poke", "title": "Poke"}, {"alias": "hawaiian", "title": "Hawaiian"}, {"alias": "sushi", "title": "Sushi Bars"}], "rating": 4.5, "coordinates": {"latitude": 37.7041942, "longitude": -121.8510978}, "transactions": ["delivery"], "price": "$$", "location": {"address1": "3858 Fallon Rd", "address2": "", "address3": null, "city": "Dublin", "zip_code": "94568", "country": "US", "state": "CA", "display_address": ["3858 Fallon Rd", "Dublin, CA 94568"]}, "phone": "+19253618029", "display_phone": "(925) 361-8029", "distance": 7555.385095485004}, {"id": "_M3HEe2xcrxWlWFljoqG8g", "alias": "kimono-japanese-restaurant-pleasanton-pleasanton", "name": "Kimono Japanese Restaurant, Pleasanton", "image_url": "https://s3-media1.fl.yelpcdn.com/bphoto/RtuWPePOFlHZ9rHp07DWQQ/o.jpg", "is_closed": false, "url": "https://www.yelp.com/biz/kimono-japanese-restaurant-pleasanton-pleasanton?adjust_creative=xeSzjzfHY0IaghaPzcqsFA&utm_campaign=yelp_api_v3&utm_medium=api_v3_business_search&utm_source=xeSzjzfHY0IaghaPzcqsFA", "review_count": 150, "categories": [{"alias": "japanese", "title": "Japanese"}, {"alias": "sushi", "title": "Sushi Bars"}, {"alias": "steak", "title": "Steakhouses"}], "rating": 3.5, "coordinates": {"latitude": 37.69978, "longitude": -121.87095}, "transactions": ["pickup", "delivery"], "location": {"address1": "6770 Santa Rita Rd", "address2": "", "address3": null, "city": "Pleasanton", "zip_code": "94588", "country": "US", "state": "CA", "display_address": ["6770 Santa Rita Rd", "Pleasanton, CA 94588"]}, "phone": "+19257370138", "display_phone": "(925) 737-0138", "distance": 8981.206400222727}, {"id": "aouClV4hxed-uGrMXL3fvA", "alias": "pocket-sushi-pleasanton", "name": "Pocket Sushi", "image_url": "https://s3-media2.fl.yelpcdn.com/bphoto/whf2kPDHldh-9B_lXClwBQ/o.jpg", "is_closed": false, "url": "https://www.yelp.com/biz/pocket-sushi-pleasanton?adjust_creative=xeSzjzfHY0IaghaPzcqsFA&utm_campaign=yelp_api_v3&utm_medium=api_v3_business_search&utm_source=xeSzjzfHY0IaghaPzcqsFA", "review_count": 442, "categories": [{"alias": "sushi", "title": "Sushi Bars"}, {"alias": "japanese", "title": "Japanese"}, {"alias": "hotdogs", "title": "Fast Food"}], "rating": 4.5, "coordinates": {"latitude": 37.68985312282972, "longitude": -121.90306743609567}, "transactions": ["delivery"], "price": "$$", "location": {"address1": "4747 Hopyard", "address2": "Ste E5", "address3": "", "city": "Pleasanton", "zip_code": "94588", "country": "US", "state": "CA", "display_address": ["4747 Hopyard", "Ste E5", "Pleasanton, CA 94588"]}, "phone": "+19252716473", "display_phone": "(925) 271-6473", "distance": 11557.705228195127}, {"id": "Qv3SJ-14j3wj9swa9o9Dbg", "alias": "ume-sushi-pleasanton", "name": "Ume Sushi", "image_url": "https://s3-media2.fl.yelpcdn.com/bphoto/23Lm_slOwOygLtlCzZz5Tw/o.jpg", "is_closed": false, "url": "https://www.yelp.com/biz/ume-sushi-pleasanton?adjust_creative=xeSzjzfHY0IaghaPzcqsFA&utm_campaign=yelp_api_v3&utm_medium=api_v3_business_search&utm_source=xeSzjzfHY0IaghaPzcqsFA", "review_count": 969, "categories": [{"alias": "sushi", "title": "Sushi Bars"}, {"alias": "japanese", "title": "Japanese"}], "rating": 4.0, "coordinates": {"latitude": 37.69315, "longitude": -121.9025878}, "transactions": ["pickup", "delivery"], "price": "$$", "location": {"address1": "4855 Hopyard Rd", "address2": "Ste 7", "address3": "", "city": "Pleasanton", "zip_code": "94588", "country": "US", "state": "CA", "display_address": ["4855 Hopyard Rd", "Ste 7", "Pleasanton, CA 94588"]}, "phone": "+19257340996", "display_phone": "(925) 734-0996", "distance": 11560.057414542172}, {"id": "TEWq0vsocGdMRJ5IvQ3tPQ", "alias": "fat-fish-sushi-pleasanton", "name": "Fat Fish Sushi", "image_url": "https://s3-media2.fl.yelpcdn.com/bphoto/tjnU4fR3QyjnV1ZKgh-8Pg/o.jpg", "is_closed": false, "url": "https://www.yelp.com/biz/fat-fish-sushi-pleasanton?adjust_creative=xeSzjzfHY0IaghaPzcqsFA&utm_campaign=yelp_api_v3&utm_medium=api_v3_business_search&utm_source=xeSzjzfHY0IaghaPzcqsFA", "review_count": 916, "categories": [{"alias": "sushi", "title": "Sushi Bars"}, {"alias": "japanese", "title": "Japanese"}], "rating": 3.5, "coordinates": {"latitude": 37.69698, "longitude": -121.87899}, "transactions": ["pickup", "delivery"], "price": "$$", "location": {"address1": "3657 Old Santa Rita Rd", "address2": "Ste A", "address3": "", "city": "Pleasanton", "zip_code": "94588", "country": "US", "state": "CA", "display_address": ["3657 Old Santa Rita Rd", "Ste A", "Pleasanton, CA 94588"]}, "phone": "+19254167700", "display_phone": "(925) 416-7700", "distance": 9592.636758507846}, {"id": "K9n8X84ujN_zjTzL0TEeaw", "alias": "mj-sushi-danville", "name": "Mj Sushi", "image_url": "https://s3-media2.fl.yelpcdn.com/bphoto/DujZmpV_0N0OrfPA7NBaTg/o.jpg", "is_closed": false, "url": "https://www.yelp.com/biz/mj-sushi-danville?adjust_creative=xeSzjzfHY0IaghaPzcqsFA&utm_campaign=yelp_api_v3&utm_medium=api_v3_business_search&utm_source=xeSzjzfHY0IaghaPzcqsFA", "review_count": 135, "categories": [{"alias": "sushi", "title": "Sushi Bars"}], "rating": 4.0, "coordinates": {"latitude": 37.7986256, "longitude": -121.918405}, "transactions": [], "price": "$$", "location": {"address1": "3468 Camino Tassajara", "address2": null, "address3": "", "city": "Danville", "zip_code": "94506", "country": "US", "state": "CA", "display_address": ["3468 Camino Tassajara", "Danville, CA 94506"]}, "phone": "+19253094215", "display_phone": "(925) 309-4215", "distance": 18439.522190344247}, {"id": "7M8WYHqyuYiQWNQVVf6sIA", "alias": "ukai-japanese-bistro-san-ramon", "name": "Ukai Japanese Bistro", "image_url": "https://s3-media2.fl.yelpcdn.com/bphoto/-ypTwQ-S-vsI2BMLYaHFkQ/o.jpg", "is_closed": false, "url": "https://www.yelp.com/biz/ukai-japanese-bistro-san-ramon?adjust_creative=xeSzjzfHY0IaghaPzcqsFA&utm_campaign=yelp_api_v3&utm_medium=api_v3_business_search&utm_source=xeSzjzfHY0IaghaPzcqsFA", "review_count": 355, "categories": [{"alias": "japanese", "title": "Japanese"}, {"alias": "sushi", "title": "Sushi Bars"}], "rating": 4.5, "coordinates": {"latitude": 37.77476, "longitude": -121.97535}, "transactions": ["delivery", "restaurant_reservation"], "price": "$$", "location": {"address1": "2416 San Ramon Valley Blvd", "address2": "Ste 120", "address3": "", "city": "San Ramon", "zip_code": "94583", "country": "US", "state": "CA", "display_address": ["2416 San Ramon Valley Blvd", "Ste 120", "San Ramon, CA 94583"]}, "phone": "+19257185479", "display_phone": "(925) 718-5479", "distance": 20773.261303547508}, {"id": "r7NV2c-zyMjMqNFtgL0Plg", "alias": "senro-sushi-pleasanton", "name": "Senro Sushi", "image_url": "https://s3-media2.fl.yelpcdn.com/bphoto/EnImKRdYis3jWO262I1N6Q/o.jpg", "is_closed": false, "url": "https://www.yelp.com/biz/senro-sushi-pleasanton?adjust_creative=xeSzjzfHY0IaghaPzcqsFA&utm_campaign=yelp_api_v3&utm_medium=api_v3_business_search&utm_source=xeSzjzfHY0IaghaPzcqsFA", "review_count": 300, "categories": [{"alias": "sushi", "title": "Sushi Bars"}, {"alias": "japanese", "title": "Japanese"}], "rating": 3.5, "coordinates": {"latitude": 37.6598243713379, "longitude": -121.874847412109}, "transactions": ["delivery"], "price": "$$", "location": {"address1": "30 W Neal St", "address2": "Ste 110", "address3": "", "city": "Pleasanton", "zip_code": "94566", "country": "US", "state": "CA", "display_address": ["30 W Neal St", "Ste 110", "Pleasanton, CA 94566"]}, "phone": "+19256008040", "display_phone": "(925) 600-8040", "distance": 9249.99251070587}, {"id": "ejqKaDSVXKd4Msxq9pOXJg", "alias": "meiko-sushi-japanese-restaurant-pleasanton", "name": "Meiko Sushi Japanese Restaurant", "image_url": "https://s3-media2.fl.yelpcdn.com/bphoto/pwKkWWdEuSjMwQljeoz37g/o.jpg", "is_closed": false, "url": "https://www.yelp.com/biz/meiko-sushi-japanese-restaurant-pleasanton?adjust_creative=xeSzjzfHY0IaghaPzcqsFA&utm_campaign=yelp_api_v3&utm_medium=api_v3_business_search&utm_source=xeSzjzfHY0IaghaPzcqsFA", "review_count": 568, "categories": [{"alias": "japanese", "title": "Japanese"}, {"alias": "sushi", "title": "Sushi Bars"}], "rating": 3.5, "coordinates": {"latitude": 37.677071, "longitude": -121.875691}, "transactions": ["pickup", "delivery"], "price": "$$", "location": {"address1": "4301 Valley Ave", "address2": "Ste B", "address3": "", "city": "Pleasanton", "zip_code": "94566", "country": "US", "state": "CA", "display_address": ["4301 Valley Ave", "Ste B", "Pleasanton, CA 94566"]}, "phone": "+19254623321", "display_phone": "(925) 462-3321", "distance": 9087.110313944928}, {"id": "JDP_Pxw6KQ7Xm0EVTu0nIQ", "alias": "pacific-catch-dublin", "name": "Pacific Catch", "image_url": "https://s3-media1.fl.yelpcdn.com/bphoto/plCHvQ_63lR6O20aCDJSzA/o.jpg", "is_closed": false, "url": "https://www.yelp.com/biz/pacific-catch-dublin?adjust_creative=xeSzjzfHY0IaghaPzcqsFA&utm_campaign=yelp_api_v3&utm_medium=api_v3_business_search&utm_source=xeSzjzfHY0IaghaPzcqsFA", "review_count": 1230, "categories": [{"alias": "seafood", "title": "Seafood"}, {"alias": "sushi", "title": "Sushi Bars"}, {"alias": "tacos", "title": "Tacos"}], "rating": 4.0, "coordinates": {"latitude": 37.7047824, "longitude": -121.8907481}, "transactions": ["pickup", "delivery"], "price": "$$", "location": {"address1": "5251 Martinelli Way", "address2": null, "address3": "", "city": "Dublin", "zip_code": "94568", "country": "US", "state": "CA", "display_address": ["5251 Martinelli Way", "Dublin, CA 94568"]}, "phone": "+19259998053", "display_phone": "(925) 999-8053", "distance": 10831.709717294132}, {"id": "0dp6rD0K0jEeZAIibRfz1w", "alias": "yayume-sushi-san-ramon-3", "name": "Yayume Sushi", "image_url": "https://s3-media3.fl.yelpcdn.com/bphoto/yQ4hfVj__pU96rVEWk2C7w/o.jpg", "is_closed": false, "url": "https://www.yelp.com/biz/yayume-sushi-san-ramon-3?adjust_creative=xeSzjzfHY0IaghaPzcqsFA&utm_campaign=yelp_api_v3&utm_medium=api_v3_business_search&utm_source=xeSzjzfHY0IaghaPzcqsFA", "review_count": 523, "categories": [{"alias": "sushi", "title": "Sushi Bars"}, {"alias": "ramen", "title": "Ramen"}], "rating": 4.0, "coordinates": {"latitude": 37.77121143233155, "longitude": -121.9744603}, "transactions": ["pickup", "delivery"], "price": "$$", "location": {"address1": "2551 San Ramon Valley Blvd", "address2": "Ste 104", "address3": "", "city": "San Ramon", "zip_code": "94583", "country": "US", "state": "CA", "display_address": ["2551 San Ramon Valley Blvd", "Ste 104", "San Ramon, CA 94583"]}, "phone": "+19258384848", "display_phone": "(925) 838-4848", "distance": 20518.82896196737}, {"id": "3W3f3NRK3ZihXa_tq6HCLQ", "alias": "uncle-yus-at-the-vineyard-livermore", "name": "Uncle Yu's At the Vineyard", "image_url": "https://s3-media3.fl.yelpcdn.com/bphoto/3CgQncdZTlsJCINi6vITOg/o.jpg", "is_closed": false, "url": "https://www.yelp.com/biz/uncle-yus-at-the-vineyard-livermore?adjust_creative=xeSzjzfHY0IaghaPzcqsFA&utm_campaign=yelp_api_v3&utm_medium=api_v3_business_search&utm_source=xeSzjzfHY0IaghaPzcqsFA", "review_count": 995, "categories": [{"alias": "chinese", "title": "Chinese"}], "rating": 4.0, "coordinates": {"latitude": 37.682436, "longitude": -121.7688548}, "transactions": ["pickup", "delivery"], "price": "$$", "location": {"address1": "39 S Livermore Ave", "address2": null, "address3": "", "city": "Livermore", "zip_code": "94550", "country": "US", "state": "CA", "display_address": ["39 S Livermore Ave", "Livermore, CA 94550"]}, "phone": "+19254497000", "display_phone": "(925) 449-7000", "distance": 506.60250601938054}, {"id": "77OaMkbPhQvtr-AaBvLbww", "alias": "posada-restaurant-livermore", "name": "Posada Restaurant", "image_url": "https://s3-media1.fl.yelpcdn.com/bphoto/QNkz2dn9b4VDTscehVZS8g/o.jpg", "is_closed": false, "url": "https://www.yelp.com/biz/posada-restaurant-livermore?adjust_creative=xeSzjzfHY0IaghaPzcqsFA&utm_campaign=yelp_api_v3&utm_medium=api_v3_business_search&utm_source=xeSzjzfHY0IaghaPzcqsFA", "review_count": 1111, "categories": [{"alias": "desserts", "title": "Desserts"}, {"alias": "latin", "title": "Latin American"}], "rating": 4.5, "coordinates": {"latitude": 37.6761886804666, "longitude": -121.784641131551}, "transactions": ["delivery"], "price": "$$", "location": {"address1": "988 Murrieta Blvd", "address2": "", "address3": "", "city": "Livermore", "zip_code": "94550", "country": "US", "state": "CA", "display_address": ["988 Murrieta Blvd", "Livermore, CA 94550"]}, "phone": "+19256061004", "display_phone": "(925) 606-1004", "distance": 1113.0679044893873}, {"id": "bnMqpk7g2nzxJsJs7xvXqA", "alias": "simply-fondue-livermore", "name": "Simply Fondue", "image_url": "https://s3-media4.fl.yelpcdn.com/bphoto/UTE2mfEPp6jwsRKVJ_qyYQ/o.jpg", "is_closed": false, "url": "https://www.yelp.com/biz/simply-fondue-livermore?adjust_creative=xeSzjzfHY0IaghaPzcqsFA&utm_campaign=yelp_api_v3&utm_medium=api_v3_business_search&utm_source=xeSzjzfHY0IaghaPzcqsFA", "review_count": 1244, "categories": [{"alias": "fondue", "title": "Fondue"}, {"alias": "bars", "title": "Bars"}, {"alias": "seafood", "title": "Seafood"}], "rating": 4.0, "coordinates": {"latitude": 37.682402, "longitude": -121.768171}, "transactions": ["pickup", "delivery"], "price": "$$$", "location": {"address1": "2300 First St", "address2": "Ste 110", "address3": "", "city": "Livermore", "zip_code": "94550", "country": "US", "state": "CA", "display_address": ["2300 First St", "Ste 110", "Livermore, CA 94550"]}, "phone": "+19254436638", "display_phone": "(925) 443-6638", "distance": 543.5897684781866}, {"id": "jJJDuL9T13q5sES1dszdlA", "alias": "kitayama-fremont", "name": "Kitayama", "image_url": "https://s3-media1.fl.yelpcdn.com/bphoto/r_1P1lsIn9bm1qGJCDG_Lg/o.jpg", "is_closed": false, "url": "https://www.yelp.com/biz/kitayama-fremont?adjust_creative=xeSzjzfHY0IaghaPzcqsFA&utm_campaign=yelp_api_v3&utm_medium=api_v3_business_search&utm_source=xeSzjzfHY0IaghaPzcqsFA", "review_count": 158, "categories": [{"alias": "japanese", "title": "Japanese"}, {"alias": "sushi", "title": "Sushi Bars"}], "rating": 4.0, "coordinates": {"latitude": 37.530656, "longitude": -121.92007}, "transactions": ["pickup", "delivery"], "price": "$$", "location": {"address1": "129 Anza St", "address2": null, "address3": "", "city": "Fremont", "zip_code": "94539", "country": "US", "state": "CA", "display_address": ["129 Anza St", "Fremont, CA 94539"]}, "phone": "+15102708338", "display_phone": "(510) 270-8338", "distance": 20994.05883486786}, {"id": "BYupE5K2LPZaSPjvDZW3xw", "alias": "torarenbou-sushi-bistro-dublin-2", "name": "Torarenbou Sushi Bistro", "image_url": "https://s3-media1.fl.yelpcdn.com/bphoto/5jY3L4Bz4ShHM3fzSjmBtQ/o.jpg", "is_closed": false, "url": "https://www.yelp.com/biz/torarenbou-sushi-bistro-dublin-2?adjust_creative=xeSzjzfHY0IaghaPzcqsFA&utm_campaign=yelp_api_v3&utm_medium=api_v3_business_search&utm_source=xeSzjzfHY0IaghaPzcqsFA", "review_count": 244, "categories": [{"alias": "japanese", "title": "Japanese"}, {"alias": "sushi", "title": "Sushi Bars"}], "rating": 4.0, "coordinates": {"latitude": 37.7103888790227, "longitude": -121.928345145009}, "transactions": ["pickup", "delivery"], "price": "$$", "location": {"address1": "7435 Amador Valley Blvd", "address2": "", "address3": null, "city": "Dublin", "zip_code": "94568", "country": "US", "state": "CA", "display_address": ["7435 Amador Valley Blvd", "Dublin, CA 94568"]}, "phone": "+19255517799", "display_phone": "(925) 551-7799", "distance": 14155.968007802014}, {"id": "NRoQJYtVwOZaM3313GzP9g", "alias": "oyo-pleasanton-2", "name": "Oyo", "image_url": "https://s3-media1.fl.yelpcdn.com/bphoto/UuubDcUfsVcDFzOoUwbw3w/o.jpg", "is_closed": false, "url": "https://www.yelp.com/biz/oyo-pleasanton-2?adjust_creative=xeSzjzfHY0IaghaPzcqsFA&utm_campaign=yelp_api_v3&utm_medium=api_v3_business_search&utm_source=xeSzjzfHY0IaghaPzcqsFA", "review_count": 865, "categories": [{"alias": "latin", "title": "Latin American"}, {"alias": "caribbean", "title": "Caribbean"}, {"alias": "tapas", "title": "Tapas Bars"}], "rating": 4.5, "coordinates": {"latitude": 37.662663, "longitude": -121.874544}, "transactions": ["pickup", "delivery", "restaurant_reservation"], "price": "$$", "location": {"address1": "680 Main St", "address2": "", "address3": null, "city": "Pleasanton", "zip_code": "94566", "country": "US", "state": "CA", "display_address": ["680 Main St", "Pleasanton, CA 94566"]}, "phone": "+19252495936", "display_phone": "(925) 249-5936", "distance": 9162.142916480792}, {"id": "WgKJ9ByxdIfT8hu8k0H9Lw", "alias": "sodam-dublin", "name": "Sodam", "image_url": "https://s3-media2.fl.yelpcdn.com/bphoto/yhF4mgtXT-c90D9zdZAH_g/o.jpg", "is_closed": false, "url": "https://www.yelp.com/biz/sodam-dublin?adjust_creative=xeSzjzfHY0IaghaPzcqsFA&utm_campaign=yelp_api_v3&utm_medium=api_v3_business_search&utm_source=xeSzjzfHY0IaghaPzcqsFA", "review_count": 403, "categories": [{"alias": "korean", "title": "Korean"}, {"alias": "tea", "title": "Tea Rooms"}, {"alias": "bakeries", "title": "Bakeries"}], "rating": 4.5, "coordinates": {"latitude": 37.7053459, "longitude": -121.9360922}, "transactions": ["delivery"], "price": "$", "location": {"address1": "7992 Amador Valley Blvd", "address2": "", "address3": "", "city": "Dublin", "zip_code": "94568", "country": "US", "state": "CA", "display_address": ["7992 Amador Valley Blvd", "Dublin, CA 94568"]}, "phone": "+19255510977", "display_phone": "(925) 551-0977", "distance": 14695.373654017963}, {"id": "eR2xAafq_oP23jVf9rfHPA", "alias": "blue-sakana-blackhawk-danville-2", "name": "Blue Sakana Blackhawk", "image_url": "https://s3-media1.fl.yelpcdn.com/bphoto/y8cBob5khPls2JdGexz6Qw/o.jpg", "is_closed": false, "url": "https://www.yelp.com/biz/blue-sakana-blackhawk-danville-2?adjust_creative=xeSzjzfHY0IaghaPzcqsFA&utm_campaign=yelp_api_v3&utm_medium=api_v3_business_search&utm_source=xeSzjzfHY0IaghaPzcqsFA", "review_count": 453, "categories": [{"alias": "japanese", "title": "Japanese"}, {"alias": "sushi", "title": "Sushi Bars"}, {"alias": "cocktailbars", "title": "Cocktail Bars"}], "rating": 3.5, "coordinates": {"latitude": 37.79979919874659, "longitude": -121.91933267671632}, "transactions": ["pickup", "delivery"], "price": "$$", "location": {"address1": "3496 Blackhawk Plaza Cir", "address2": "", "address3": "", "city": "Danville", "zip_code": "94506", "country": "US", "state": "CA", "display_address": ["3496 Blackhawk Plaza Cir", "Danville, CA 94506"]}, "phone": "+19256487838", "display_phone": "(925) 648-7838", "distance": 18643.077716436055}, {"id": "E-vs9lX5diKq6zBcG5Ikrg", "alias": "sozo-sushi-restaurant-pleasanton", "name": "Sozo Sushi Restaurant", "image_url": "https://s3-media2.fl.yelpcdn.com/bphoto/M4FDk3OYxFtEthbSSKCHsA/o.jpg", "is_closed": false, "url": "https://www.yelp.com/biz/sozo-sushi-restaurant-pleasanton?adjust_creative=xeSzjzfHY0IaghaPzcqsFA&utm_campaign=yelp_api_v3&utm_medium=api_v3_business_search&utm_source=xeSzjzfHY0IaghaPzcqsFA", "review_count": 627, "categories": [{"alias": "sushi", "title": "Sushi Bars"}, {"alias": "japanese", "title": "Japanese"}], "rating": 3.5, "coordinates": {"latitude": 37.676239, "longitude": -121.8948364}, "transactions": ["delivery"], "price": "$$", "location": {"address1": "2835 Hopyard Rd", "address2": "", "address3": "", "city": "Pleasanton", "zip_code": "94588", "country": "US", "state": "CA", "display_address": ["2835 Hopyard Rd", "Pleasanton, CA 94588"]}, "phone": "+19254845588", "display_phone": "(925) 484-5588", "distance": 10761.326027738543}, {"id": "6fFXH9dO03Zv5IyYOuzr6A", "alias": "84-teriyaki-livermore", "name": "84 Teriyaki", "image_url": "https://s3-media4.fl.yelpcdn.com/bphoto/5gt6vXuWkkhp-wC3aWnHdQ/o.jpg", "is_closed": false, "url": "https://www.yelp.com/biz/84-teriyaki-livermore?adjust_creative=xeSzjzfHY0IaghaPzcqsFA&utm_campaign=yelp_api_v3&utm_medium=api_v3_business_search&utm_source=xeSzjzfHY0IaghaPzcqsFA", "review_count": 92, "categories": [{"alias": "japanese", "title": "Japanese"}, {"alias": "korean", "title": "Korean"}], "rating": 3.5, "coordinates": {"latitude": 37.689855247736, "longitude": -121.8034042418}, "transactions": ["pickup"], "price": "$", "location": {"address1": "51 Wright Brothers Ave", "address2": "", "address3": "", "city": "Livermore", "zip_code": "94551", "country": "US", "state": "CA", "display_address": ["51 Wright Brothers Ave", "Livermore, CA 94551"]}, "phone": "+19259600931", "display_phone": "(925) 960-0931", "distance": 3129.5734542277623}, {"id": "OODpBh5nTkXUvdoJKDMeMg", "alias": "myeongdong-ja-jang-pleasanton", "name": "MyeongDong Ja Jang", "image_url": "https://s3-media3.fl.yelpcdn.com/bphoto/ZTFRb9t0C2rYMpzIfsSegg/o.jpg", "is_closed": false, "url": "https://www.yelp.com/biz/myeongdong-ja-jang-pleasanton?adjust_creative=xeSzjzfHY0IaghaPzcqsFA&utm_campaign=yelp_api_v3&utm_medium=api_v3_business_search&utm_source=xeSzjzfHY0IaghaPzcqsFA", "review_count": 58, "categories": [{"alias": "noodles", "title": "Noodles"}, {"alias": "korean", "title": "Korean"}], "rating": 4.0, "coordinates": {"latitude": 37.6970432, "longitude": -121.8497897}, "transactions": [], "price": "$$", "location": {"address1": "2725 Stoneridge Dr", "address2": "Ste 104", "address3": null, "city": "Pleasanton", "zip_code": "94588", "country": "US", "state": "CA", "display_address": ["2725 Stoneridge Dr", "Ste 104", "Pleasanton, CA 94588"]}, "phone": "+19253988907", "display_phone": "(925) 398-8907", "distance": 7097.738829070966}, {"id": "hRVZtJhorh4sCOnJJ2vD1Q", "alias": "sato-japanese-cuisine-pleasanton", "name": "Sato Japanese Cuisine", "image_url": "https://s3-media2.fl.yelpcdn.com/bphoto/AUAdPMNV0Hulu6wbZzsZwg/o.jpg", "is_closed": false, "url": "https://www.yelp.com/biz/sato-japanese-cuisine-pleasanton?adjust_creative=xeSzjzfHY0IaghaPzcqsFA&utm_campaign=yelp_api_v3&utm_medium=api_v3_business_search&utm_source=xeSzjzfHY0IaghaPzcqsFA", "review_count": 292, "categories": [{"alias": "japanese", "title": "Japanese"}, {"alias": "sushi", "title": "Sushi Bars"}], "rating": 4.0, "coordinates": {"latitude": 37.67726010984954, "longitude": -121.89699687261513}, "transactions": ["delivery"], "price": "$$", "location": {"address1": "3015 Hopyard Rd", "address2": "Ste K", "address3": "", "city": "Pleasanton", "zip_code": "94588", "country": "US", "state": "CA", "display_address": ["3015 Hopyard Rd", "Ste K", "Pleasanton, CA 94588"]}, "phone": "+19254623131", "display_phone": "(925) 462-3131", "distance": 10961.392658767541}, {"id": "Q21fKwXvaXm3J79XYmUThQ", "alias": "genji-san-ramon", "name": "Genji", "image_url": "https://s3-media4.fl.yelpcdn.com/bphoto/Ub4RYoj3MyZhm7VxtuLMww/o.jpg", "is_closed": false, "url": "https://www.yelp.com/biz/genji-san-ramon?adjust_creative=xeSzjzfHY0IaghaPzcqsFA&utm_campaign=yelp_api_v3&utm_medium=api_v3_business_search&utm_source=xeSzjzfHY0IaghaPzcqsFA", "review_count": 4, "categories": [{"alias": "sushi", "title": "Sushi Bars"}, {"alias": "japanese", "title": "Japanese"}], "rating": 4.0, "coordinates": {"latitude": 37.7619019, "longitude": -121.9617691}, "transactions": [], "location": {"address1": "100 Sunset Dr", "address2": "", "address3": "Whole Foods Market", "city": "San Ramon", "zip_code": "94583", "country": "US", "state": "CA", "display_address": ["100 Sunset Dr", "Whole Foods Market", "San Ramon, CA 94583"]}, "phone": "+19253559000", "display_phone": "(925) 355-9000", "distance": 18992.03003558594}, {"id": "Y-oR-9De6pvJACWRpMpKGg", "alias": "dandy-dogs-livermore", "name": "Dandy Dogs", "image_url": "https://s3-media1.fl.yelpcdn.com/bphoto/D6Oc-xmNPE4SZ2JVhJ95EA/o.jpg", "is_closed": false, "url": "https://www.yelp.com/biz/dandy-dogs-livermore?adjust_creative=xeSzjzfHY0IaghaPzcqsFA&utm_campaign=yelp_api_v3&utm_medium=api_v3_business_search&utm_source=xeSzjzfHY0IaghaPzcqsFA", "review_count": 114, "categories": [{"alias": "burgers", "title": "Burgers"}, {"alias": "hotdog", "title": "Hot Dogs"}], "rating": 4.0, "coordinates": {"latitude": 37.6800349, "longitude": -121.7468249}, "transactions": ["delivery"], "price": "$", "location": {"address1": "4086 East Ave", "address2": "", "address3": "", "city": "Livermore", "zip_code": "94550", "country": "US", "state": "CA", "display_address": ["4086 East Ave", "Livermore, CA 94550"]}, "phone": "+19254555444", "display_phone": "(925) 455-5444", "distance": 2249.009916213269}, {"id": "K9-2-9TlA7cRi_nzs3szmA", "alias": "626-night-market-bay-area-pleasanton-2", "name": "626 Night Market - Bay Area", "image_url": "https://s3-media4.fl.yelpcdn.com/bphoto/nRKhhOd9_8yzcgSzUyG4Gg/o.jpg", "is_closed": false, "url": "https://www.yelp.com/biz/626-night-market-bay-area-pleasanton-2?adjust_creative=xeSzjzfHY0IaghaPzcqsFA&utm_campaign=yelp_api_v3&utm_medium=api_v3_business_search&utm_source=xeSzjzfHY0IaghaPzcqsFA", "review_count": 379, "categories": [{"alias": "foodstands", "title": "Food Stands"}, {"alias": "fleamarkets", "title": "Flea Markets"}, {"alias": "foodtrucks", "title": "Food Trucks"}], "rating": 3.0, "coordinates": {"latitude": 37.66257, "longitude": -121.8884}, "transactions": [], "price": "$", "location": {"address1": "4501 Pleasanton Ave", "address2": "", "address3": null, "city": "Pleasanton", "zip_code": "94566", "country": "US", "state": "CA", "display_address": ["4501 Pleasanton Ave", "Pleasanton, CA 94566"]}, "phone": "", "display_phone": "", "distance": 9887.089642423449}, {"id": "hH1GzEbsmxns4Ua-Vv7UDA", "alias": "kochu-pleasanton-3", "name": "Kochu", "image_url": "https://s3-media3.fl.yelpcdn.com/bphoto/fv3ZBrM8BlIeG8WoGpw3lw/o.jpg", "is_closed": false, "url": "https://www.yelp.com/biz/kochu-pleasanton-3?adjust_creative=xeSzjzfHY0IaghaPzcqsFA&utm_campaign=yelp_api_v3&utm_medium=api_v3_business_search&utm_source=xeSzjzfHY0IaghaPzcqsFA", "review_count": 63, "categories": [{"alias": "korean", "title": "Korean"}, {"alias": "food_court", "title": "Food Court"}], "rating": 4.0, "coordinates": {"latitude": 37.69564045413523, "longitude": -121.8495894}, "transactions": [], "price": "$$", "location": {"address1": "2705 Stoneridge Dr", "address2": "Ste E", "address3": null, "city": "Pleasanton", "zip_code": "94588", "country": "US", "state": "CA", "display_address": ["2705 Stoneridge Dr", "Ste E", "Pleasanton, CA 94588"]}, "phone": "+19252011849", "display_phone": "(925) 201-1849", "distance": 7038.015786762784}, {"id": "vzqrPUiOofgnYsAR5TZMJQ", "alias": "poke-don-san-ramon", "name": "Poke Don", "image_url": "https://s3-media1.fl.yelpcdn.com/bphoto/BIMbMbQmKkfDcD0rNfuQTw/o.jpg", "is_closed": false, "url": "https://www.yelp.com/biz/poke-don-san-ramon?adjust_creative=xeSzjzfHY0IaghaPzcqsFA&utm_campaign=yelp_api_v3&utm_medium=api_v3_business_search&utm_source=xeSzjzfHY0IaghaPzcqsFA", "review_count": 941, "categories": [{"alias": "seafood", "title": "Seafood"}, {"alias": "hotdogs", "title": "Fast Food"}, {"alias": "hawaiian", "title": "Hawaiian"}], "rating": 4.0, "coordinates": {"latitude": 37.7741223528384, "longitude": -121.976215951145}, "transactions": ["delivery"], "price": "$$", "location": {"address1": "2491 San Ramon Valley Blvd", "address2": "Ste 2", "address3": "", "city": "San Ramon", "zip_code": "94583", "country": "US", "state": "CA", "display_address": ["2491 San Ramon Valley Blvd", "Ste 2", "San Ramon, CA 94583"]}, "phone": "+19257185244", "display_phone": "(925) 718-5244", "distance": 20815.15586028104}, {"id": "O6QsymnjodRdKpAkBQJUDQ", "alias": "dumpling-85-san-ramon", "name": "Dumpling 85", "image_url": "https://s3-media2.fl.yelpcdn.com/bphoto/4r7PjEN9KciPlpGUOiH_sQ/o.jpg", "is_closed": false, "url": "https://www.yelp.com/biz/dumpling-85-san-ramon?adjust_creative=xeSzjzfHY0IaghaPzcqsFA&utm_campaign=yelp_api_v3&utm_medium=api_v3_business_search&utm_source=xeSzjzfHY0IaghaPzcqsFA", "review_count": 145, "categories": [{"alias": "shanghainese", "title": "Shanghainese"}], "rating": 4.0, "coordinates": {"latitude": 37.7799, "longitude": -121.9723}, "transactions": [], "price": "$$", "location": {"address1": "2005 Crow Canyon Pl", "address2": "Ste 138", "address3": "", "city": "San Ramon", "zip_code": "94583", "country": "US", "state": "CA", "display_address": ["2005 Crow Canyon Pl", "Ste 138", "San Ramon, CA 94583"]}, "phone": "+19253935373", "display_phone": "(925) 393-5373", "distance": 20834.799224572358}, {"id": "VTp61xKlpUFkomgLRSEuvg", "alias": "110-shabu-shabu-dublin-3", "name": "110 Shabu Shabu", "image_url": "https://s3-media1.fl.yelpcdn.com/bphoto/up1LRQk73gZE2k6JIOLSLQ/o.jpg", "is_closed": false, "url": "https://www.yelp.com/biz/110-shabu-shabu-dublin-3?adjust_creative=xeSzjzfHY0IaghaPzcqsFA&utm_campaign=yelp_api_v3&utm_medium=api_v3_business_search&utm_source=xeSzjzfHY0IaghaPzcqsFA", "review_count": 136, "categories": [{"alias": "hotpot", "title": "Hot Pot"}, {"alias": "noodles", "title": "Noodles"}, {"alias": "japanese", "title": "Japanese"}], "rating": 4.5, "coordinates": {"latitude": 37.70461237606626, "longitude": -121.87589270702388}, "transactions": ["delivery", "restaurant_reservation", "pickup"], "price": "$$", "location": {"address1": "4288 Dublin Blvd", "address2": "Ste 110", "address3": "", "city": "Dublin", "zip_code": "94568", "country": "US", "state": "CA", "display_address": ["4288 Dublin Blvd", "Ste 110", "Dublin, CA 94568"]}, "phone": "+19252308882", "display_phone": "(925) 230-8882", "distance": 9539.972397148704}, {"id": "s1G1lk4qdSbprhgGFhZbDw", "alias": "kanpai-sushi-dublin", "name": "Kanpai Sushi", "image_url": "https://s3-media3.fl.yelpcdn.com/bphoto/zEBIA62ANNlo33MLkOJixw/o.jpg", "is_closed": false, "url": "https://www.yelp.com/biz/kanpai-sushi-dublin?adjust_creative=xeSzjzfHY0IaghaPzcqsFA&utm_campaign=yelp_api_v3&utm_medium=api_v3_business_search&utm_source=xeSzjzfHY0IaghaPzcqsFA", "review_count": 69, "categories": [{"alias": "sushi", "title": "Sushi Bars"}], "rating": 3.5, "coordinates": {"latitude": 37.703928074716906, "longitude": -121.88478850707729}, "transactions": ["delivery", "pickup"], "location": {"address1": "4930 Dublin Blvd", "address2": "Ste 640", "address3": "", "city": "Dublin", "zip_code": "94568", "country": "US", "state": "CA", "display_address": ["4930 Dublin Blvd", "Ste 640", "Dublin, CA 94568"]}, "phone": "+19253615318", "display_phone": "(925) 361-5318", "distance": 10268.514851470378}, {"id": "rEnH62Nkr5M8GW04e3bI8g", "alias": "local-poke-pleasanton", "name": "Local Poke", "image_url": "https://s3-media2.fl.yelpcdn.com/bphoto/HLc3y4_n-J86rOwrMAa2xw/o.jpg", "is_closed": false, "url": "https://www.yelp.com/biz/local-poke-pleasanton?adjust_creative=xeSzjzfHY0IaghaPzcqsFA&utm_campaign=yelp_api_v3&utm_medium=api_v3_business_search&utm_source=xeSzjzfHY0IaghaPzcqsFA", "review_count": 409, "categories": [{"alias": "poke", "title": "Poke"}, {"alias": "hawaiian", "title": "Hawaiian"}], "rating": 4.5, "coordinates": {"latitude": 37.69919, "longitude": -121.87145}, "transactions": ["delivery"], "price": "$$", "location": {"address1": "6700 Santa Rita Rd", "address2": "Ste I", "address3": "", "city": "Pleasanton", "zip_code": "94588", "country": "US", "state": "CA", "display_address": ["6700 Santa Rita Rd", "Ste I", "Pleasanton, CA 94588"]}, "phone": "+15108285313", "display_phone": "(510) 828-5313", "distance": 8977.961377252941}, {"id": "BBSbT3owLio-JM4gN3ZlGw", "alias": "hop-devine-livermore", "name": "Hop DeVine", "image_url": "https://s3-media3.fl.yelpcdn.com/bphoto/qnFKplXfJ4gfe9hdjBsNMw/o.jpg", "is_closed": false, "url": "https://www.yelp.com/biz/hop-devine-livermore?adjust_creative=xeSzjzfHY0IaghaPzcqsFA&utm_campaign=yelp_api_v3&utm_medium=api_v3_business_search&utm_source=xeSzjzfHY0IaghaPzcqsFA", "review_count": 516, "categories": [{"alias": "newamerican", "title": "American (New)"}, {"alias": "sportsbars", "title": "Sports Bars"}, {"alias": "tradamerican", "title": "American (Traditional)"}], "rating": 4.5, "coordinates": {"latitude": 37.7193357, "longitude": -121.7243549}, "transactions": ["delivery"], "price": "$$", "location": {"address1": "1708 N Vasco Rd", "address2": "", "address3": "", "city": "Livermore", "zip_code": "94551", "country": "US", "state": "CA", "display_address": ["1708 N Vasco Rd", "Livermore, CA 94551"]}, "phone": "+19256674170", "display_phone": "(925) 667-4170", "distance": 6171.797811909002}, {"id": "iluZKW7sa0VeH1uX6JzIEQ", "alias": "xushi-bento-house-pleasanton", "name": "Xushi Bento House", "image_url": "https://s3-media2.fl.yelpcdn.com/bphoto/8a87z1ab3GYPSL3q0YENpQ/o.jpg", "is_closed": false, "url": "https://www.yelp.com/biz/xushi-bento-house-pleasanton?adjust_creative=xeSzjzfHY0IaghaPzcqsFA&utm_campaign=yelp_api_v3&utm_medium=api_v3_business_search&utm_source=xeSzjzfHY0IaghaPzcqsFA", "review_count": 150, "categories": [{"alias": "japanese", "title": "Japanese"}, {"alias": "bbq", "title": "Barbeque"}, {"alias": "sushi", "title": "Sushi Bars"}], "rating": 3.5, "coordinates": {"latitude": 37.69844, "longitude": -121.87364}, "transactions": [], "price": "$$", "location": {"address1": "4247 Rosewood Dr", "address2": "Ste 17", "address3": null, "city": "Pleasanton", "zip_code": "94588", "country": "US", "state": "CA", "display_address": ["4247 Rosewood Dr", "Ste 17", "Pleasanton, CA 94588"]}, "phone": "+19252251888", "display_phone": "(925) 225-1888", "distance": 9164.781289461931}, {"id": "ILvsidV_J-0laGzDQ_CgSw", "alias": "lemongrass-thai-restaurant-livermore-5", "name": "Lemongrass Thai Restaurant", "image_url": "https://s3-media1.fl.yelpcdn.com/bphoto/fbQWqWqx2t-HSpSVl4w_Dw/o.jpg", "is_closed": false, "url": "https://www.yelp.com/biz/lemongrass-thai-restaurant-livermore-5?adjust_creative=xeSzjzfHY0IaghaPzcqsFA&utm_campaign=yelp_api_v3&utm_medium=api_v3_business_search&utm_source=xeSzjzfHY0IaghaPzcqsFA", "review_count": 388, "categories": [{"alias": "thai", "title": "Thai"}], "rating": 3.5, "coordinates": {"latitude": 37.6816921, "longitude": -121.769054}, "transactions": ["pickup"], "price": "$$", "location": {"address1": "2216 1st St", "address2": "", "address3": "", "city": "Livermore", "zip_code": "94550", "country": "US", "state": "CA", "display_address": ["2216 1st St", "Livermore, CA 94550"]}, "phone": "+19256066496", "display_phone": "(925) 606-6496", "distance": 448.079233522886}, {"id": "YP1JNZM4uPxHAI0aN7vfzA", "alias": "prime-pok\u00e9-pleasanton-2", "name": "Prime Pok\u00e9", "image_url": "https://s3-media4.fl.yelpcdn.com/bphoto/8XlW1_jS5w2JreyyVi4zXQ/o.jpg", "is_closed": false, "url": "https://www.yelp.com/biz/prime-pok%C3%A9-pleasanton-2?adjust_creative=xeSzjzfHY0IaghaPzcqsFA&utm_campaign=yelp_api_v3&utm_medium=api_v3_business_search&utm_source=xeSzjzfHY0IaghaPzcqsFA", "review_count": 195, "categories": [{"alias": "seafood", "title": "Seafood"}, {"alias": "poke", "title": "Poke"}], "rating": 4.5, "coordinates": {"latitude": 37.65935, "longitude": -121.87686}, "transactions": ["delivery", "pickup"], "price": "$$", "location": {"address1": "349 Main St", "address2": "Ste 140", "address3": "", "city": "Pleasanton", "zip_code": "94566", "country": "US", "state": "CA", "display_address": ["349 Main St", "Ste 140", "Pleasanton, CA 94566"]}, "phone": "+19255233963", "display_phone": "(925) 523-3963", "distance": 9432.322816708282}, {"id": "QyWhnDMIk5F9egb47ojXiw", "alias": "donut-wheel-livermore", "name": "Donut Wheel", "image_url": "https://s3-media3.fl.yelpcdn.com/bphoto/0EtVt-kYG5z1xtcPJ2smYw/o.jpg", "is_closed": false, "url": "https://www.yelp.com/biz/donut-wheel-livermore?adjust_creative=xeSzjzfHY0IaghaPzcqsFA&utm_campaign=yelp_api_v3&utm_medium=api_v3_business_search&utm_source=xeSzjzfHY0IaghaPzcqsFA", "review_count": 408, "categories": [{"alias": "donuts", "title": "Donuts"}], "rating": 4.0, "coordinates": {"latitude": 37.6807479858398, "longitude": -121.770835876465}, "transactions": [], "price": "$", "location": {"address1": "2017 1st St", "address2": "", "address3": "", "city": "Livermore", "zip_code": "94550", "country": "US", "state": "CA", "display_address": ["2017 1st St", "Livermore, CA 94550"]}, "phone": "+19254478190", "display_phone": "(925) 447-8190", "distance": 260.0448677231157}, {"id": "9qbrRm1i_HA1-UrAVIEuqQ", "alias": "sachi-sushi-san-ramon", "name": "Sachi Sushi", "image_url": "https://s3-media3.fl.yelpcdn.com/bphoto/ZyqImKNlQUWlYVWt2KfHfQ/o.jpg", "is_closed": false, "url": "https://www.yelp.com/biz/sachi-sushi-san-ramon?adjust_creative=xeSzjzfHY0IaghaPzcqsFA&utm_campaign=yelp_api_v3&utm_medium=api_v3_business_search&utm_source=xeSzjzfHY0IaghaPzcqsFA", "review_count": 379, "categories": [{"alias": "sushi", "title": "Sushi Bars"}, {"alias": "japanese", "title": "Japanese"}, {"alias": "seafood", "title": "Seafood"}], "rating": 3.5, "coordinates": {"latitude": 37.7641708522953, "longitude": -121.951557188602}, "transactions": ["delivery", "pickup"], "price": "$$", "location": {"address1": "390 Market Pl", "address2": "", "address3": "", "city": "San Ramon", "zip_code": "94583", "country": "US", "state": "CA", "display_address": ["390 Market Pl", "San Ramon, CA 94583"]}, "phone": "+19258662248", "display_phone": "(925) 866-2248", "distance": 18386.658992522138}, {"id": "In4nv2FF_zBhtjZ9xrciUQ", "alias": "brothers-kitchen-san-ramon-2", "name": "Brothers Kitchen", "image_url": "https://s3-media2.fl.yelpcdn.com/bphoto/-V6z02EAEahKW1jKFs8pLg/o.jpg", "is_closed": false, "url": "https://www.yelp.com/biz/brothers-kitchen-san-ramon-2?adjust_creative=xeSzjzfHY0IaghaPzcqsFA&utm_campaign=yelp_api_v3&utm_medium=api_v3_business_search&utm_source=xeSzjzfHY0IaghaPzcqsFA", "review_count": 133, "categories": [{"alias": "korean", "title": "Korean"}], "rating": 4.0, "coordinates": {"latitude": 37.762697, "longitude": -121.952699}, "transactions": ["delivery", "pickup"], "price": "$$", "location": {"address1": "1061 Market Pl", "address2": "Unit D", "address3": "", "city": "San Ramon", "zip_code": "94583", "country": "US", "state": "CA", "display_address": ["1061 Market Pl", "Unit D", "San Ramon, CA 94583"]}, "phone": "+19258660600", "display_phone": "(925) 866-0600", "distance": 18392.64365223583}, {"id": "LZF8Xl22ViqiryFvg6KM4A", "alias": "the-slanted-door-san-ramon-san-ramon", "name": "The Slanted Door San Ramon", "image_url": "https://s3-media1.fl.yelpcdn.com/bphoto/7hiUoz49jYaITvVj5f7dfw/o.jpg", "is_closed": false, "url": "https://www.yelp.com/biz/the-slanted-door-san-ramon-san-ramon?adjust_creative=xeSzjzfHY0IaghaPzcqsFA&utm_campaign=yelp_api_v3&utm_medium=api_v3_business_search&utm_source=xeSzjzfHY0IaghaPzcqsFA", "review_count": 519, "categories": [{"alias": "vietnamese", "title": "Vietnamese"}], "rating": 3.5, "coordinates": {"latitude": 37.76295470509413, "longitude": -121.96024920810872}, "transactions": ["delivery"], "price": "$$$", "location": {"address1": "6000 Bollinger Canyon Rd", "address2": "Ste 1300", "address3": null, "city": "San Ramon", "zip_code": "94583", "country": "US", "state": "CA", "display_address": ["6000 Bollinger Canyon Rd", "Ste 1300", "San Ramon, CA 94583"]}, "phone": "+19255874771", "display_phone": "(925) 587-4771", "distance": 18978.853538092066}, {"id": "DqLL-F6o0u1mORpz2IZb5A", "alias": "pho-saigon-restaurant-pleasanton", "name": "Pho Saigon Restaurant", "image_url": "https://s3-media4.fl.yelpcdn.com/bphoto/93sJANMvMx_FNH1CGLuiCA/o.jpg", "is_closed": false, "url": "https://www.yelp.com/biz/pho-saigon-restaurant-pleasanton?adjust_creative=xeSzjzfHY0IaghaPzcqsFA&utm_campaign=yelp_api_v3&utm_medium=api_v3_business_search&utm_source=xeSzjzfHY0IaghaPzcqsFA", "review_count": 98, "categories": [{"alias": "vietnamese", "title": "Vietnamese"}, {"alias": "soup", "title": "Soup"}], "rating": 4.5, "coordinates": {"latitude": 37.68915, "longitude": -121.9023}, "transactions": ["pickup", "delivery"], "price": "$$", "location": {"address1": "4555 Hopyard Rd", "address2": "Ste C-5", "address3": "", "city": "Pleasanton", "zip_code": "94588", "country": "US", "state": "CA", "display_address": ["4555 Hopyard Rd", "Ste C-5", "Pleasanton, CA 94588"]}, "phone": "+19258299361", "display_phone": "(925) 829-9361", "distance": 11493.548006955845}, {"id": "g1GIz2Lbx5u3y8ixd75Cog", "alias": "yuki-japanese-restaurant-fremont", "name": "Yuki Japanese Restaurant", "image_url": "https://s3-media3.fl.yelpcdn.com/bphoto/uvMmilHYOKgSgVvJiN40Ew/o.jpg", "is_closed": false, "url": "https://www.yelp.com/biz/yuki-japanese-restaurant-fremont?adjust_creative=xeSzjzfHY0IaghaPzcqsFA&utm_campaign=yelp_api_v3&utm_medium=api_v3_business_search&utm_source=xeSzjzfHY0IaghaPzcqsFA", "review_count": 460, "categories": [{"alias": "japanese", "title": "Japanese"}, {"alias": "sushi", "title": "Sushi Bars"}], "rating": 3.5, "coordinates": {"latitude": 37.541767163771, "longitude": -121.94644725547}, "transactions": ["delivery"], "price": "$$", "location": {"address1": "1932 Driscoll Rd", "address2": "", "address3": "", "city": "Fremont", "zip_code": "94539", "country": "US", "state": "CA", "display_address": ["1932 Driscoll Rd", "Fremont, CA 94539"]}, "phone": "+15106565021", "display_phone": "(510) 656-5021", "distance": 21618.12963264185}, {"id": "yujLJ1YB-sNrd9esDimjFA", "alias": "mumu-hot-pot-pleasanton", "name": "Mumu Hot Pot", "image_url": "https://s3-media4.fl.yelpcdn.com/bphoto/_nwQZa_BSLOLaqubwGnEwg/o.jpg", "is_closed": false, "url": "https://www.yelp.com/biz/mumu-hot-pot-pleasanton?adjust_creative=xeSzjzfHY0IaghaPzcqsFA&utm_campaign=yelp_api_v3&utm_medium=api_v3_business_search&utm_source=xeSzjzfHY0IaghaPzcqsFA", "review_count": 557, "categories": [{"alias": "hotpot", "title": "Hot Pot"}, {"alias": "chinese", "title": "Chinese"}], "rating": 4.0, "coordinates": {"latitude": 37.69712, "longitude": -121.85038}, "transactions": ["pickup", "delivery"], "price": "$$", "location": {"address1": "2725 Stoneridge Dr", "address2": "Ste 103", "address3": "", "city": "Pleasanton", "zip_code": "94588", "country": "US", "state": "CA", "display_address": ["2725 Stoneridge Dr", "Ste 103", "Pleasanton, CA 94588"]}, "phone": "+19252238588", "display_phone": "(925) 223-8588", "distance": 7097.738829070966}, {"id": "7Cwg5mYvb-fhXpn1EyZV0A", "alias": "blue-sakana-danville", "name": "Blue Sakana", "image_url": "", "is_closed": false, "url": "https://www.yelp.com/biz/blue-sakana-danville?adjust_creative=xeSzjzfHY0IaghaPzcqsFA&utm_campaign=yelp_api_v3&utm_medium=api_v3_business_search&utm_source=xeSzjzfHY0IaghaPzcqsFA", "review_count": 1, "categories": [{"alias": "sushi", "title": "Sushi Bars"}, {"alias": "izakaya", "title": "Izakaya"}], "rating": 4.0, "coordinates": {"latitude": 37.79994, "longitude": -121.91887}, "transactions": [], "location": {"address1": "3496 Blackhawk Plz Cir", "address2": null, "address3": "", "city": "Danville", "zip_code": "94506", "country": "US", "state": "CA", "display_address": ["3496 Blackhawk Plz Cir", "Danville, CA 94506"]}, "phone": "+19256487838", "display_phone": "(925) 648-7838", "distance": 18642.84685592664}, {"id": "-wMaoDPIcNGDfZfxyrCV8A", "alias": "beer-baron-bar-and-kitchen-pleasanton-3", "name": "Beer Baron Bar & Kitchen", "image_url": "https://s3-media1.fl.yelpcdn.com/bphoto/gQxWn9q1My5EodSTmsU6yA/o.jpg", "is_closed": false, "url": "https://www.yelp.com/biz/beer-baron-bar-and-kitchen-pleasanton-3?adjust_creative=xeSzjzfHY0IaghaPzcqsFA&utm_campaign=yelp_api_v3&utm_medium=api_v3_business_search&utm_source=xeSzjzfHY0IaghaPzcqsFA", "review_count": 660, "categories": [{"alias": "beerbar", "title": "Beer Bar"}, {"alias": "cocktailbars", "title": "Cocktail Bars"}, {"alias": "newamerican", "title": "American (New)"}], "rating": 4.0, "coordinates": {"latitude": 37.6625, "longitude": -121.87571}, "transactions": ["pickup", "delivery", "restaurant_reservation"], "price": "$$", "location": {"address1": "336 Saint Mary St", "address2": null, "address3": null, "city": "Pleasanton", "zip_code": "94566", "country": "US", "state": "CA", "display_address": ["336 Saint Mary St", "Pleasanton, CA 94566"]}, "phone": "+19252238577", "display_phone": "(925) 223-8577", "distance": 9261.307096415081}, {"id": "x2FqwlVxoH6mgo_MWYEj8w", "alias": "new-thai-bistro-pleasanton-2", "name": "New Thai Bistro", "image_url": "https://s3-media2.fl.yelpcdn.com/bphoto/PsatKyNVsUtgcCCp6OviZQ/o.jpg", "is_closed": false, "url": "https://www.yelp.com/biz/new-thai-bistro-pleasanton-2?adjust_creative=xeSzjzfHY0IaghaPzcqsFA&utm_campaign=yelp_api_v3&utm_medium=api_v3_business_search&utm_source=xeSzjzfHY0IaghaPzcqsFA", "review_count": 1394, "categories": [{"alias": "thai", "title": "Thai"}, {"alias": "noodles", "title": "Noodles"}, {"alias": "catering", "title": "Caterers"}], "rating": 4.0, "coordinates": {"latitude": 37.67718, "longitude": -121.87578}, "transactions": ["pickup", "delivery"], "price": "$$", "location": {"address1": "4301 D Valley Ave", "address2": "", "address3": "", "city": "Pleasanton", "zip_code": "94566", "country": "US", "state": "CA", "display_address": ["4301 D Valley Ave", "Pleasanton, CA 94566"]}, "phone": "+19254257333", "display_phone": "(925) 425-7333", "distance": 9094.98271269805}, {"id": "wmXGKWo8SpvJwm2gzAtrRA", "alias": "hana-japan-steak-and-seafood-dublin", "name": "Hana Japan Steak & Seafood", "image_url": "https://s3-media3.fl.yelpcdn.com/bphoto/mw1ERz1eSGAl65IdGZtzqg/o.jpg", "is_closed": false, "url": "https://www.yelp.com/biz/hana-japan-steak-and-seafood-dublin?adjust_creative=xeSzjzfHY0IaghaPzcqsFA&utm_campaign=yelp_api_v3&utm_medium=api_v3_business_search&utm_source=xeSzjzfHY0IaghaPzcqsFA", "review_count": 641, "categories": [{"alias": "japanese", "title": "Japanese"}, {"alias": "steak", "title": "Steakhouses"}, {"alias": "seafood", "title": "Seafood"}], "rating": 2.5, "coordinates": {"latitude": 37.70508505067583, "longitude": -121.93751256470833}, "transactions": ["pickup", "delivery"], "price": "$$", "location": {"address1": "7298 San Ramon Rd", "address2": "", "address3": "", "city": "Dublin", "zip_code": "94568", "country": "US", "state": "CA", "display_address": ["7298 San Ramon Rd", "Dublin, CA 94568"]}, "phone": "+19258297491", "display_phone": "(925) 829-7491", "distance": 14812.133751537076}, {"id": "jJPkn_LeV1CGNhdoRK83bQ", "alias": "kokolo-donburi-pleasanton", "name": "KoKoLo Donburi", "image_url": "https://s3-media2.fl.yelpcdn.com/bphoto/2KIZtqDCNJ3gjNdUSo3V7g/o.jpg", "is_closed": false, "url": "https://www.yelp.com/biz/kokolo-donburi-pleasanton?adjust_creative=xeSzjzfHY0IaghaPzcqsFA&utm_campaign=yelp_api_v3&utm_medium=api_v3_business_search&utm_source=xeSzjzfHY0IaghaPzcqsFA", "review_count": 298, "categories": [{"alias": "japacurry", "title": "Japanese Curry"}, {"alias": "tapasmallplates", "title": "Tapas/Small Plates"}], "rating": 3.5, "coordinates": {"latitude": 37.695442, "longitude": -121.849273}, "transactions": ["pickup", "delivery"], "price": "$$", "location": {"address1": "2705 Stoneridge Dr", "address2": "Ste C", "address3": null, "city": "Pleasanton", "zip_code": "94588", "country": "US", "state": "CA", "display_address": ["2705 Stoneridge Dr", "Ste C", "Pleasanton, CA 94588"]}, "phone": "+19254250750", "display_phone": "(925) 425-0750", "distance": 7005.348234769221}, {"id": "S6_6OerIPvDS3x1TLtZ3cg", "alias": "casa-de-asada-san-ramon", "name": "Casa De Asada", "image_url": "https://s3-media1.fl.yelpcdn.com/bphoto/cbNHouZ-Q-LdrxIwpKUsYA/o.jpg", "is_closed": false, "url": "https://www.yelp.com/biz/casa-de-asada-san-ramon?adjust_creative=xeSzjzfHY0IaghaPzcqsFA&utm_campaign=yelp_api_v3&utm_medium=api_v3_business_search&utm_source=xeSzjzfHY0IaghaPzcqsFA", "review_count": 1, "categories": [{"alias": "newmexican", "title": "New Mexican Cuisine"}, {"alias": "tacos", "title": "Tacos"}], "rating": 5.0, "coordinates": {"latitude": 37.77553, "longitude": -121.976321}, "transactions": ["pickup", "delivery"], "location": {"address1": "2410 San Ramon Valley Blvd", "address2": null, "address3": "", "city": "San Ramon", "zip_code": "94583", "country": "US", "state": "CA", "display_address": ["2410 San Ramon Valley Blvd", "San Ramon, CA 94583"]}, "phone": "+19255609310", "display_phone": "(925) 560-9310", "distance": 20904.38205278452}, {"id": "_IUbPX4vUwvyG-z69MoAaA", "alias": "odagada-dublin", "name": "Odagada", "image_url": "https://s3-media3.fl.yelpcdn.com/bphoto/9Ug0FEnAaGH2mpdABUiBkQ/o.jpg", "is_closed": false, "url": "https://www.yelp.com/biz/odagada-dublin?adjust_creative=xeSzjzfHY0IaghaPzcqsFA&utm_campaign=yelp_api_v3&utm_medium=api_v3_business_search&utm_source=xeSzjzfHY0IaghaPzcqsFA", "review_count": 308, "categories": [{"alias": "chicken_wings", "title": "Chicken Wings"}, {"alias": "korean", "title": "Korean"}], "rating": 3.5, "coordinates": {"latitude": 37.70458532829584, "longitude": -121.87614058567702}, "transactions": ["delivery"], "price": "$$", "location": {"address1": "4288 Dublin Blvd", "address2": "Ste 112", "address3": "", "city": "Dublin", "zip_code": "94588", "country": "US", "state": "CA", "display_address": ["4288 Dublin Blvd", "Ste 112", "Dublin, CA 94588"]}, "phone": "+19255561772", "display_phone": "(925) 556-1772", "distance": 9559.883746092706}, {"id": "U1Na5_My7tqaGTAUSX9Bnw", "alias": "korean-village-pleasanton", "name": "Korean Village", "image_url": "https://s3-media2.fl.yelpcdn.com/bphoto/LLHVURjXmA4H7nSl4hyhRw/o.jpg", "is_closed": false, "url": "https://www.yelp.com/biz/korean-village-pleasanton?adjust_creative=xeSzjzfHY0IaghaPzcqsFA&utm_campaign=yelp_api_v3&utm_medium=api_v3_business_search&utm_source=xeSzjzfHY0IaghaPzcqsFA", "review_count": 594, "categories": [{"alias": "korean", "title": "Korean"}], "rating": 4.0, "coordinates": {"latitude": 37.67797, "longitude": -121.87511}, "transactions": ["pickup", "delivery"], "price": "$$", "location": {"address1": "1807 Santa Rita Rd", "address2": "Ste F", "address3": "", "city": "Pleasanton", "zip_code": "94566", "country": "US", "state": "CA", "display_address": ["1807 Santa Rita Rd", "Ste F", "Pleasanton, CA 94566"]}, "phone": "+19254260925", "display_phone": "(925) 426-0925", "distance": 9027.045467033011}, {"id": "sIiZOHc6sR4jL-9qOm0wyA", "alias": "meadowlark-dairy-pleasanton", "name": "Meadowlark Dairy", "image_url": "https://s3-media4.fl.yelpcdn.com/bphoto/V1DtejlKsZJuX9DpNL2Oog/o.jpg", "is_closed": false, "url": "https://www.yelp.com/biz/meadowlark-dairy-pleasanton?adjust_creative=xeSzjzfHY0IaghaPzcqsFA&utm_campaign=yelp_api_v3&utm_medium=api_v3_business_search&utm_source=xeSzjzfHY0IaghaPzcqsFA", "review_count": 2615, "categories": [{"alias": "icecream", "title": "Ice Cream & Frozen Yogurt"}], "rating": 4.5, "coordinates": {"latitude": 37.66033, "longitude": -121.87459}, "transactions": [], "price": "$", "location": {"address1": "57 W Neal St", "address2": "", "address3": "", "city": "Pleasanton", "zip_code": "94566", "country": "US", "state": "CA", "display_address": ["57 W Neal St", "Pleasanton, CA 94566"]}, "phone": "+19258462261", "display_phone": "(925) 846-2261", "distance": 9213.383542645453}, {"id": "emGodc11uKcd1689cSl8Hw", "alias": "seoul-jung-korean-bbq-dublin", "name": "Seoul Jung Korean BBQ", "image_url": "https://s3-media3.fl.yelpcdn.com/bphoto/H-E_qznD7p6owTib_b4Rug/o.jpg", "is_closed": false, "url": "https://www.yelp.com/biz/seoul-jung-korean-bbq-dublin?adjust_creative=xeSzjzfHY0IaghaPzcqsFA&utm_campaign=yelp_api_v3&utm_medium=api_v3_business_search&utm_source=xeSzjzfHY0IaghaPzcqsFA", "review_count": 1204, "categories": [{"alias": "korean", "title": "Korean"}, {"alias": "bbq", "title": "Barbeque"}], "rating": 3.5, "coordinates": {"latitude": 37.7040456604321, "longitude": -121.8516107264}, "transactions": ["pickup", "delivery"], "price": "$$", "location": {"address1": "3762 Fallon Rd", "address2": "", "address3": null, "city": "Dublin", "zip_code": "94568", "country": "US", "state": "CA", "display_address": ["3762 Fallon Rd", "Dublin, CA 94568"]}, "phone": "+19259998299", "display_phone": "(925) 999-8299", "distance": 7505.351870580745}, {"id": "RXfn1Ah3YExMqPCMswi4Uw", "alias": "the-steven-kent-winery-livermore", "name": "The Steven Kent Winery", "image_url": "https://s3-media3.fl.yelpcdn.com/bphoto/9xRMiIvWgfabonairMydsA/o.jpg", "is_closed": false, "url": "https://www.yelp.com/biz/the-steven-kent-winery-livermore?adjust_creative=xeSzjzfHY0IaghaPzcqsFA&utm_campaign=yelp_api_v3&utm_medium=api_v3_business_search&utm_source=xeSzjzfHY0IaghaPzcqsFA", "review_count": 140, "categories": [{"alias": "wineries", "title": "Wineries"}], "rating": 4.0, "coordinates": {"latitude": 37.664234, "longitude": -121.728135}, "transactions": [], "price": "$$", "location": {"address1": "5443 Tesla Rd", "address2": "", "address3": "", "city": "Livermore", "zip_code": "94550", "country": "US", "state": "CA", "display_address": ["5443 Tesla Rd", "Livermore, CA 94550"]}, "phone": "+19252436442", "display_phone": "(925) 243-6442", "distance": 4227.761283347784}, {"id": "y7CTbarF_tPNBCklQ92ATQ", "alias": "kodiak-keto-cafe-and-market-livermore", "name": "Kodiak Keto Cafe & Market", "image_url": "https://s3-media3.fl.yelpcdn.com/bphoto/PNLVLDVFlKCOFSl7HXID9Q/o.jpg", "is_closed": false, "url": "https://www.yelp.com/biz/kodiak-keto-cafe-and-market-livermore?adjust_creative=xeSzjzfHY0IaghaPzcqsFA&utm_campaign=yelp_api_v3&utm_medium=api_v3_business_search&utm_source=xeSzjzfHY0IaghaPzcqsFA", "review_count": 98, "categories": [{"alias": "cafes", "title": "Cafes"}, {"alias": "coffee", "title": "Coffee & Tea"}, {"alias": "healthmarkets", "title": "Health Markets"}], "rating": 4.0, "coordinates": {"latitude": 37.689432, "longitude": -121.805166}, "transactions": ["pickup", "delivery"], "price": "$$", "location": {"address1": "53 Wright Brothers Ave", "address2": "Ste A", "address3": "", "city": "Livermore", "zip_code": "94551", "country": "US", "state": "CA", "display_address": ["53 Wright Brothers Ave", "Ste A", "Livermore, CA 94551"]}, "phone": "+19252929336", "display_phone": "(925) 292-9336", "distance": 3098.202435744461}, {"id": "ZdYLRbpby4EzShUb0eknJA", "alias": "basil-delight-pleasanton-2", "name": "Basil Delight", "image_url": "https://s3-media2.fl.yelpcdn.com/bphoto/932vKs4Va5rXcqnZ9jE6RA/o.jpg", "is_closed": false, "url": "https://www.yelp.com/biz/basil-delight-pleasanton-2?adjust_creative=xeSzjzfHY0IaghaPzcqsFA&utm_campaign=yelp_api_v3&utm_medium=api_v3_business_search&utm_source=xeSzjzfHY0IaghaPzcqsFA", "review_count": 302, "categories": [{"alias": "thai", "title": "Thai"}, {"alias": "malaysian", "title": "Malaysian"}, {"alias": "halal", "title": "Halal"}], "rating": 4.0, "coordinates": {"latitude": 37.6972301842757, "longitude": -121.848504323339}, "transactions": ["delivery"], "price": "$$", "location": {"address1": "2709 Stoneridge Dr", "address2": "Ste 101", "address3": null, "city": "Pleasanton", "zip_code": "94588", "country": "US", "state": "CA", "display_address": ["2709 Stoneridge Dr", "Ste 101", "Pleasanton, CA 94588"]}, "phone": "+19254250577", "display_phone": "(925) 425-0577", "distance": 6976.315676736328}, {"id": "qTSUWmWaX5XyFQU7T60ZjQ", "alias": "nonnis-bistro-pleasanton-2", "name": "Nonni's Bistro", "image_url": "https://s3-media1.fl.yelpcdn.com/bphoto/RoT8By1RtM0kIEoP52EOLw/o.jpg", "is_closed": false, "url": "https://www.yelp.com/biz/nonnis-bistro-pleasanton-2?adjust_creative=xeSzjzfHY0IaghaPzcqsFA&utm_campaign=yelp_api_v3&utm_medium=api_v3_business_search&utm_source=xeSzjzfHY0IaghaPzcqsFA", "review_count": 1023, "categories": [{"alias": "modern_european", "title": "Modern European"}], "rating": 4.0, "coordinates": {"latitude": 37.65993, "longitude": -121.87646}, "transactions": ["pickup", "delivery"], "price": "$$", "location": {"address1": "425 Main St", "address2": "", "address3": "", "city": "Pleasanton", "zip_code": "94566", "country": "US", "state": "CA", "display_address": ["425 Main St", "Pleasanton, CA 94566"]}, "phone": "+19256000411", "display_phone": "(925) 600-0411", "distance": 9388.893245095545}, {"id": "yVJ6uASNs6-erYgZ1ol9BA", "alias": "andaman-thai-san-ramon-4", "name": "Andaman Thai", "image_url": "https://s3-media4.fl.yelpcdn.com/bphoto/WzNsgRPxD7t_HM7Y8is6WQ/o.jpg", "is_closed": false, "url": "https://www.yelp.com/biz/andaman-thai-san-ramon-4?adjust_creative=xeSzjzfHY0IaghaPzcqsFA&utm_campaign=yelp_api_v3&utm_medium=api_v3_business_search&utm_source=xeSzjzfHY0IaghaPzcqsFA", "review_count": 673, "categories": [{"alias": "thai", "title": "Thai"}], "rating": 4.5, "coordinates": {"latitude": 37.764284419706, "longitude": -121.95144508034}, "transactions": ["delivery"], "price": "$$", "location": {"address1": "400 Market Pl", "address2": "", "address3": null, "city": "San Ramon", "zip_code": "94583", "country": "US", "state": "CA", "display_address": ["400 Market Pl", "San Ramon, CA 94583"]}, "phone": "+19253651799", "display_phone": "(925) 365-1799", "distance": 18384.721140292902}, {"id": "IaTN7w1m7aEt91FYjpLCcw", "alias": "go-fish-poke-bar-pleasanton-2", "name": "Go Fish Poke Bar", "image_url": "https://s3-media2.fl.yelpcdn.com/bphoto/rWERPurbzgNMdN2KoSRPFw/o.jpg", "is_closed": false, "url": "https://www.yelp.com/biz/go-fish-poke-bar-pleasanton-2?adjust_creative=xeSzjzfHY0IaghaPzcqsFA&utm_campaign=yelp_api_v3&utm_medium=api_v3_business_search&utm_source=xeSzjzfHY0IaghaPzcqsFA", "review_count": 150, "categories": [{"alias": "poke", "title": "Poke"}, {"alias": "hawaiian", "title": "Hawaiian"}, {"alias": "japanese", "title": "Japanese"}], "rating": 4.0, "coordinates": {"latitude": 37.6958399, "longitude": -121.93237}, "transactions": ["pickup", "delivery"], "price": "$$", "location": {"address1": "2433 Stoneridge Mall Rd", "address2": "Fl 2", "address3": "", "city": "Pleasanton", "zip_code": "94588", "country": "US", "state": "CA", "display_address": ["2433 Stoneridge Mall Rd", "Fl 2", "Pleasanton, CA 94588"]}, "phone": "+19252235900", "display_phone": "(925) 223-5900", "distance": 13945.942819092073}, {"id": "_-YupkSMXq1kttt3lffB1A", "alias": "osumo-poke-fremont", "name": "Osumo Poke", "image_url": "https://s3-media3.fl.yelpcdn.com/bphoto/xMO_BsBposITBisc5PgPdw/o.jpg", "is_closed": false, "url": "https://www.yelp.com/biz/osumo-poke-fremont?adjust_creative=xeSzjzfHY0IaghaPzcqsFA&utm_campaign=yelp_api_v3&utm_medium=api_v3_business_search&utm_source=xeSzjzfHY0IaghaPzcqsFA", "review_count": 84, "categories": [{"alias": "hawaiian", "title": "Hawaiian"}, {"alias": "japanese", "title": "Japanese"}, {"alias": "poke", "title": "Poke"}], "rating": 4.5, "coordinates": {"latitude": 37.556556763269434, "longitude": -121.95265358650518}, "transactions": ["delivery"], "location": {"address1": "39957 Mission Blvd", "address2": "", "address3": null, "city": "Fremont", "zip_code": "94539", "country": "US", "state": "CA", "display_address": ["39957 Mission Blvd", "Fremont, CA 94539"]}, "phone": "+15102708486", "display_phone": "(510) 270-8486", "distance": 20902.30633761503}, {"id": "D87ggDrEZ2uLvX00dHGv-A", "alias": "safeway-livermore-2", "name": "Safeway", "image_url": "https://s3-media4.fl.yelpcdn.com/bphoto/CIHdYfpKHd9UkWRr6GHE7Q/o.jpg", "is_closed": false, "url": "https://www.yelp.com/biz/safeway-livermore-2?adjust_creative=xeSzjzfHY0IaghaPzcqsFA&utm_campaign=yelp_api_v3&utm_medium=api_v3_business_search&utm_source=xeSzjzfHY0IaghaPzcqsFA", "review_count": 146, "categories": [{"alias": "grocery", "title": "Grocery"}], "rating": 2.0, "coordinates": {"latitude": 37.6804056, "longitude": -121.7771987}, "transactions": [], "price": "$$", "location": {"address1": "1554 1st St", "address2": "", "address3": "", "city": "Livermore", "zip_code": "94550", "country": "US", "state": "CA", "display_address": ["1554 1st St", "Livermore, CA 94550"]}, "phone": "+19254555667", "display_phone": "(925) 455-5667", "distance": 449.9346734031798}, {"id": "wFnnpA2aOgYmyWw3H3QhZQ", "alias": "cactus-cafe-san-ramon-4", "name": "Cactus Cafe", "image_url": "https://s3-media2.fl.yelpcdn.com/bphoto/DN6JU1St3bF8RQBh7CCeBQ/o.jpg", "is_closed": false, "url": "https://www.yelp.com/biz/cactus-cafe-san-ramon-4?adjust_creative=xeSzjzfHY0IaghaPzcqsFA&utm_campaign=yelp_api_v3&utm_medium=api_v3_business_search&utm_source=xeSzjzfHY0IaghaPzcqsFA", "review_count": 6, "categories": [{"alias": "tradamerican", "title": "American (Traditional)"}, {"alias": "coffee", "title": "Coffee & Tea"}, {"alias": "delis", "title": "Delis"}], "rating": 4.5, "coordinates": {"latitude": 37.77897, "longitude": -121.97364}, "transactions": [], "price": "$", "location": {"address1": "2010 Crow Canyon Pl", "address2": null, "address3": null, "city": "San Ramon", "zip_code": "94583", "country": "US", "state": "CA", "display_address": ["2010 Crow Canyon Pl", "San Ramon, CA 94583"]}, "phone": "+19259010668", "display_phone": "(925) 901-0668", "distance": 20934.889116556784}, {"id": "E_TMlJ6zexly9RqaftDB8A", "alias": "the-lot-city-center-san-ramon", "name": "THE LOT City Center", "image_url": "https://s3-media1.fl.yelpcdn.com/bphoto/hSY0AjqVgUecomCeNf-qlw/o.jpg", "is_closed": false, "url": "https://www.yelp.com/biz/the-lot-city-center-san-ramon?adjust_creative=xeSzjzfHY0IaghaPzcqsFA&utm_campaign=yelp_api_v3&utm_medium=api_v3_business_search&utm_source=xeSzjzfHY0IaghaPzcqsFA", "review_count": 1045, "categories": [{"alias": "bars", "title": "Bars"}, {"alias": "movietheaters", "title": "Cinema"}, {"alias": "newamerican", "title": "American (New)"}], "rating": 3.0, "coordinates": {"latitude": 37.7629061401306, "longitude": -121.959195936824}, "transactions": ["pickup", "delivery"], "price": "$$", "location": {"address1": "6000 Bollinger Canyon Rd", "address2": "Ste 2300", "address3": "", "city": "San Ramon", "zip_code": "94583", "country": "US", "state": "CA", "display_address": ["6000 Bollinger Canyon Rd", "Ste 2300", "San Ramon, CA 94583"]}, "phone": "+19256640069", "display_phone": "(925) 664-0069", "distance": 18895.619399678948}, {"id": "w1YCMzjpD_6IzjGNqjed3g", "alias": "brava-garden-eatery-pleasanton-2", "name": "Brava Garden Eatery", "image_url": "https://s3-media1.fl.yelpcdn.com/bphoto/-qmLGL2k9OBvWyPxSjUtNA/o.jpg", "is_closed": false, "url": "https://www.yelp.com/biz/brava-garden-eatery-pleasanton-2?adjust_creative=xeSzjzfHY0IaghaPzcqsFA&utm_campaign=yelp_api_v3&utm_medium=api_v3_business_search&utm_source=xeSzjzfHY0IaghaPzcqsFA", "review_count": 508, "categories": [{"alias": "wine_bars", "title": "Wine Bars"}, {"alias": "italian", "title": "Italian"}, {"alias": "argentine", "title": "Argentine"}], "rating": 4.5, "coordinates": {"latitude": 37.66329, "longitude": -121.87426}, "transactions": ["pickup", "delivery"], "price": "$$", "location": {"address1": "724 Main St", "address2": null, "address3": null, "city": "Pleasanton", "zip_code": "94566", "country": "US", "state": "CA", "display_address": ["724 Main St", "Pleasanton, CA 94566"]}, "phone": "+19253988665", "display_phone": "(925) 398-8665", "distance": 9135.096336979235}, {"id": "_It7DTRmHqdTxQDMxy-DVQ", "alias": "somisomi-pleasanton-2", "name": "SomiSomi", "image_url": "https://s3-media2.fl.yelpcdn.com/bphoto/IFkXb7h7vT6ML8GkrCZKPw/o.jpg", "is_closed": false, "url": "https://www.yelp.com/biz/somisomi-pleasanton-2?adjust_creative=xeSzjzfHY0IaghaPzcqsFA&utm_campaign=yelp_api_v3&utm_medium=api_v3_business_search&utm_source=xeSzjzfHY0IaghaPzcqsFA", "review_count": 328, "categories": [{"alias": "icecream", "title": "Ice Cream & Frozen Yogurt"}, {"alias": "desserts", "title": "Desserts"}, {"alias": "korean", "title": "Korean"}], "rating": 4.5, "coordinates": {"latitude": 37.6971196, "longitude": -121.8502644}, "transactions": [], "price": "$", "location": {"address1": "2725 Stoneridge Dr", "address2": "Ste 106", "address3": null, "city": "Pleasanton", "zip_code": "94588", "country": "US", "state": "CA", "display_address": ["2725 Stoneridge Dr", "Ste 106", "Pleasanton, CA 94588"]}, "phone": "+19252236148", "display_phone": "(925) 223-6148", "distance": 7097.738829070966}, {"id": "DgrmDclf3_ga9CBGrXAngg", "alias": "lees-sandwiches-dublin-2", "name": "Lee's Sandwiches", "image_url": "https://s3-media3.fl.yelpcdn.com/bphoto/fXBuZJl2FUTxDwPKWmudQw/o.jpg", "is_closed": false, "url": "https://www.yelp.com/biz/lees-sandwiches-dublin-2?adjust_creative=xeSzjzfHY0IaghaPzcqsFA&utm_campaign=yelp_api_v3&utm_medium=api_v3_business_search&utm_source=xeSzjzfHY0IaghaPzcqsFA", "review_count": 592, "categories": [{"alias": "vietnamese", "title": "Vietnamese"}, {"alias": "sandwiches", "title": "Sandwiches"}, {"alias": "coffee", "title": "Coffee & Tea"}], "rating": 3.5, "coordinates": {"latitude": 37.70619, "longitude": -121.87379}, "transactions": ["pickup", "delivery"], "price": "$$", "location": {"address1": "4101 Dublin Blvd", "address2": "Ste B", "address3": "", "city": "Dublin", "zip_code": "94568", "country": "US", "state": "CA", "display_address": ["4101 Dublin Blvd", "Ste B", "Dublin, CA 94568"]}, "phone": "+19258288888", "display_phone": "(925) 828-8888", "distance": 9437.028125261933}, {"id": "sFBMqxEJ5dtMUs9ITtwXXQ", "alias": "similan-thai-cuisine-danville", "name": "Similan Thai Cuisine", "image_url": "https://s3-media1.fl.yelpcdn.com/bphoto/4QmXDVPch4ru3QOFMTWUEQ/o.jpg", "is_closed": false, "url": "https://www.yelp.com/biz/similan-thai-cuisine-danville?adjust_creative=xeSzjzfHY0IaghaPzcqsFA&utm_campaign=yelp_api_v3&utm_medium=api_v3_business_search&utm_source=xeSzjzfHY0IaghaPzcqsFA", "review_count": 574, "categories": [{"alias": "thai", "title": "Thai"}], "rating": 4.5, "coordinates": {"latitude": 37.7982539259145, "longitude": -121.923193673849}, "transactions": ["pickup", "delivery"], "price": "$$", "location": {"address1": "9000 Crow Canyon Rd", "address2": "Ste K", "address3": "", "city": "Danville", "zip_code": "94506", "country": "US", "state": "CA", "display_address": ["9000 Crow Canyon Rd", "Ste K", "Danville, CA 94506"]}, "phone": "+19256481790", "display_phone": "(925) 648-1790", "distance": 18757.9808281106}, {"id": "nQQxX086YQZeMCo0rembIA", "alias": "roam-artisan-burgers-san-ramon-2", "name": "Roam Artisan Burgers", "image_url": "https://s3-media3.fl.yelpcdn.com/bphoto/UyhQ2KpsmaFgNOZLgh5ZVw/o.jpg", "is_closed": false, "url": "https://www.yelp.com/biz/roam-artisan-burgers-san-ramon-2?adjust_creative=xeSzjzfHY0IaghaPzcqsFA&utm_campaign=yelp_api_v3&utm_medium=api_v3_business_search&utm_source=xeSzjzfHY0IaghaPzcqsFA", "review_count": 325, "categories": [{"alias": "burgers", "title": "Burgers"}], "rating": 3.5, "coordinates": {"latitude": 37.7636744258188, "longitude": -121.960091105589}, "transactions": ["pickup", "delivery"], "price": "$$", "location": {"address1": "6000 Bollinger Canyon Rd", "address2": "Ste 1101", "address3": null, "city": "San Ramon", "zip_code": "94583", "country": "US", "state": "CA", "display_address": ["6000 Bollinger Canyon Rd", "Ste 1101", "San Ramon, CA 94583"]}, "phone": "+19253651427", "display_phone": "(925) 365-1427", "distance": 19006.254620259035}, {"id": "ubHh19RdTuoxIjCSQjYdIg", "alias": "truva-mediterranean-grill-pleasanton-2", "name": "Truva Mediterranean Grill", "image_url": "https://s3-media2.fl.yelpcdn.com/bphoto/DjhGorKV0zc2s8v-hVRY7Q/o.jpg", "is_closed": false, "url": "https://www.yelp.com/biz/truva-mediterranean-grill-pleasanton-2?adjust_creative=xeSzjzfHY0IaghaPzcqsFA&utm_campaign=yelp_api_v3&utm_medium=api_v3_business_search&utm_source=xeSzjzfHY0IaghaPzcqsFA", "review_count": 218, "categories": [{"alias": "salad", "title": "Salad"}, {"alias": "halal", "title": "Halal"}, {"alias": "wraps", "title": "Wraps"}], "rating": 4.5, "coordinates": {"latitude": 37.68853, "longitude": -121.90297}, "transactions": ["pickup", "delivery"], "price": "$$", "location": {"address1": "4501 Hopyard Rd D3", "address2": null, "address3": "", "city": "Pleasanton", "zip_code": "94588", "country": "US", "state": "CA", "display_address": ["4501 Hopyard Rd D3", "Pleasanton, CA 94588"]}, "phone": "+19253995070", "display_phone": "(925) 399-5070", "distance": 11529.022258443802}, {"id": "racgW5Fpb0uH1D5bVVTg6Q", "alias": "pho-99-dublin-5", "name": "Pho 99", "image_url": "https://s3-media2.fl.yelpcdn.com/bphoto/reH3dW9m3m6PrBN2bcjEUQ/o.jpg", "is_closed": false, "url": "https://www.yelp.com/biz/pho-99-dublin-5?adjust_creative=xeSzjzfHY0IaghaPzcqsFA&utm_campaign=yelp_api_v3&utm_medium=api_v3_business_search&utm_source=xeSzjzfHY0IaghaPzcqsFA", "review_count": 559, "categories": [{"alias": "vietnamese", "title": "Vietnamese"}, {"alias": "soup", "title": "Soup"}, {"alias": "noodles", "title": "Noodles"}], "rating": 4.0, "coordinates": {"latitude": 37.710269, "longitude": -121.92861}, "transactions": ["delivery"], "price": "$$", "location": {"address1": "7459 Amador Valley Blvd", "address2": null, "address3": "", "city": "Dublin", "zip_code": "94568", "country": "US", "state": "CA", "display_address": ["7459 Amador Valley Blvd", "Dublin, CA 94568"]}, "phone": "+19253618915", "display_phone": "(925) 361-8915", "distance": 14175.271193959477}, {"id": "QSqUOTknt2BRCoLZi6RYSA", "alias": "world-wrapps-san-ramon", "name": "World Wrapps", "image_url": "https://s3-media4.fl.yelpcdn.com/bphoto/KJkNKBAP_mO2iZVIM7TZnQ/o.jpg", "is_closed": false, "url": "https://www.yelp.com/biz/world-wrapps-san-ramon?adjust_creative=xeSzjzfHY0IaghaPzcqsFA&utm_campaign=yelp_api_v3&utm_medium=api_v3_business_search&utm_source=xeSzjzfHY0IaghaPzcqsFA", "review_count": 162, "categories": [{"alias": "thai", "title": "Thai"}, {"alias": "korean", "title": "Korean"}, {"alias": "mexican", "title": "Mexican"}], "rating": 4.0, "coordinates": {"latitude": 37.762474999732966, "longitude": -121.95991371192135}, "transactions": ["pickup", "delivery"], "price": "$$", "location": {"address1": "6000 Bollinger Canyon Rd", "address2": "Ste 1512", "address3": "", "city": "San Ramon", "zip_code": "94583", "country": "US", "state": "CA", "display_address": ["6000 Bollinger Canyon Rd", "Ste 1512", "San Ramon, CA 94583"]}, "phone": "+19254153063", "display_phone": "(925) 415-3063", "distance": 18926.97289075138}, {"id": "1gsJ5wVotJKHQ77IklHaWg", "alias": "oasis-restaurant-and-wine-lounge-pleasanton-14", "name": "Oasis Restaurant & Wine Lounge", "image_url": "https://s3-media2.fl.yelpcdn.com/bphoto/Rf07RxditzQTHwDyu3qIcw/o.jpg", "is_closed": false, "url": "https://www.yelp.com/biz/oasis-restaurant-and-wine-lounge-pleasanton-14?adjust_creative=xeSzjzfHY0IaghaPzcqsFA&utm_campaign=yelp_api_v3&utm_medium=api_v3_business_search&utm_source=xeSzjzfHY0IaghaPzcqsFA", "review_count": 1233, "categories": [{"alias": "mediterranean", "title": "Mediterranean"}, {"alias": "wine_bars", "title": "Wine Bars"}, {"alias": "cocktailbars", "title": "Cocktail Bars"}], "rating": 4.0, "coordinates": {"latitude": 37.663659, "longitude": -121.874125}, "transactions": ["pickup", "delivery", "restaurant_reservation"], "price": "$$", "location": {"address1": "780 Main St", "address2": "Ste 101", "address3": "", "city": "Pleasanton", "zip_code": "94566", "country": "US", "state": "CA", "display_address": ["780 Main St", "Ste 101", "Pleasanton, CA 94566"]}, "phone": "+19254178438", "display_phone": "(925) 417-8438", "distance": 9106.62228382956}, {"id": "0mBYX9pplUA5wdEFtNszhQ", "alias": "fiery-shanghai-pleasanton-2", "name": "Fiery Shanghai", "image_url": "https://s3-media3.fl.yelpcdn.com/bphoto/5Csz2Jyhk_j1nrOv1Fu76w/o.jpg", "is_closed": false, "url": "https://www.yelp.com/biz/fiery-shanghai-pleasanton-2?adjust_creative=xeSzjzfHY0IaghaPzcqsFA&utm_campaign=yelp_api_v3&utm_medium=api_v3_business_search&utm_source=xeSzjzfHY0IaghaPzcqsFA", "review_count": 508, "categories": [{"alias": "shanghainese", "title": "Shanghainese"}, {"alias": "szechuan", "title": "Szechuan"}], "rating": 3.5, "coordinates": {"latitude": 37.6966938, "longitude": -121.8486998}, "transactions": ["pickup", "delivery"], "price": "$$", "location": {"address1": "2717 Stoneridge Dr", "address2": "Ste 103", "address3": null, "city": "Pleasanton", "zip_code": "94588", "country": "US", "state": "CA", "display_address": ["2717 Stoneridge Dr", "Ste 103", "Pleasanton, CA 94588"]}, "phone": "+19252011131", "display_phone": "(925) 201-1131", "distance": 6994.766371591596}, {"id": "wskofQq3iTi4E4E4kMZGig", "alias": "sourdough-and-co-dublin-8", "name": "Sourdough & Co", "image_url": "https://s3-media4.fl.yelpcdn.com/bphoto/bbojWWqG7wrqf9R9cmlRsw/o.jpg", "is_closed": false, "url": "https://www.yelp.com/biz/sourdough-and-co-dublin-8?adjust_creative=xeSzjzfHY0IaghaPzcqsFA&utm_campaign=yelp_api_v3&utm_medium=api_v3_business_search&utm_source=xeSzjzfHY0IaghaPzcqsFA", "review_count": 195, "categories": [{"alias": "sandwiches", "title": "Sandwiches"}, {"alias": "salad", "title": "Salad"}, {"alias": "soup", "title": "Soup"}], "rating": 4.0, "coordinates": {"latitude": 37.706205, "longitude": -121.851794}, "transactions": ["pickup", "delivery"], "price": "$$", "location": {"address1": "2696 Dublin Blvd", "address2": "", "address3": null, "city": "Dublin", "zip_code": "94568", "country": "US", "state": "CA", "display_address": ["2696 Dublin Blvd", "Dublin, CA 94568"]}, "phone": "+19253647331", "display_phone": "(925) 364-7331", "distance": 7612.814677652617}, {"id": "p6UWo7VAnyLt68jRDrb8vw", "alias": "safeway-livermore", "name": "Safeway", "image_url": "https://s3-media2.fl.yelpcdn.com/bphoto/STL-Eq_ZPrJMJsA_fWl71g/o.jpg", "is_closed": false, "url": "https://www.yelp.com/biz/safeway-livermore?adjust_creative=xeSzjzfHY0IaghaPzcqsFA&utm_campaign=yelp_api_v3&utm_medium=api_v3_business_search&utm_source=xeSzjzfHY0IaghaPzcqsFA", "review_count": 202, "categories": [{"alias": "grocery", "title": "Grocery"}], "rating": 2.5, "coordinates": {"latitude": 37.69560979622394, "longitude": -121.74294660957864}, "transactions": [], "price": "$$", "location": {"address1": "4495 1st St", "address2": "", "address3": "", "city": "Livermore", "zip_code": "94551", "country": "US", "state": "CA", "display_address": ["4495 1st St", "Livermore, CA 94551"]}, "phone": "+19254552520", "display_phone": "(925) 455-2520", "distance": 3194.3160026962437}, {"id": "ttK3DjLI4eOoa7tCN98cOQ", "alias": "the-habit-burger-grill-livermore-2", "name": "The Habit Burger Grill", "image_url": "https://s3-media2.fl.yelpcdn.com/bphoto/jkiIhSYTRiRSV5g2xTzW9A/o.jpg", "is_closed": false, "url": "https://www.yelp.com/biz/the-habit-burger-grill-livermore-2?adjust_creative=xeSzjzfHY0IaghaPzcqsFA&utm_campaign=yelp_api_v3&utm_medium=api_v3_business_search&utm_source=xeSzjzfHY0IaghaPzcqsFA", "review_count": 171, "categories": [{"alias": "salad", "title": "Salad"}, {"alias": "burgers", "title": "Burgers"}, {"alias": "sandwiches", "title": "Sandwiches"}], "rating": 3.0, "coordinates": {"latitude": 37.6931856, "longitude": -121.77373752883518}, "transactions": ["delivery"], "price": "$", "location": {"address1": "2150 Portola Ave.", "address2": "Suite A", "address3": "", "city": "Livermore", "zip_code": "94550", "country": "US", "state": "CA", "display_address": ["2150 Portola Ave.", "Suite A", "Livermore, CA 94550"]}, "phone": "+19253710833", "display_phone": "(925) 371-0833", "distance": 1594.1483159120626}, {"id": "F2jUQGHd9XnBmLWC2JRBaA", "alias": "the-cheesecake-factory-pleasanton-3", "name": "The Cheesecake Factory", "image_url": "https://s3-media2.fl.yelpcdn.com/bphoto/3LMHpjsKgpbrTER9i-8dlQ/o.jpg", "is_closed": false, "url": "https://www.yelp.com/biz/the-cheesecake-factory-pleasanton-3?adjust_creative=xeSzjzfHY0IaghaPzcqsFA&utm_campaign=yelp_api_v3&utm_medium=api_v3_business_search&utm_source=xeSzjzfHY0IaghaPzcqsFA", "review_count": 2514, "categories": [{"alias": "desserts", "title": "Desserts"}, {"alias": "newamerican", "title": "American (New)"}], "rating": 2.5, "coordinates": {"latitude": 37.6940973, "longitude": -121.9290448}, "transactions": ["restaurant_reservation"], "price": "$$", "location": {"address1": "1350 Stoneridge Mall Rd", "address2": null, "address3": "", "city": "Pleasanton", "zip_code": "94588", "country": "US", "state": "CA", "display_address": ["1350 Stoneridge Mall Rd", "Pleasanton, CA 94588"]}, "phone": "+19254631311", "display_phone": "(925) 463-1311", "distance": 13882.192776840358}, {"id": "ahh5gNUYFUozXk8kTSK5EA", "alias": "fiesta-taco-pleasanton", "name": "Fiesta Taco", "image_url": "https://s3-media2.fl.yelpcdn.com/bphoto/9izisRKSsEWgdXzcps9emA/o.jpg", "is_closed": false, "url": "https://www.yelp.com/biz/fiesta-taco-pleasanton?adjust_creative=xeSzjzfHY0IaghaPzcqsFA&utm_campaign=yelp_api_v3&utm_medium=api_v3_business_search&utm_source=xeSzjzfHY0IaghaPzcqsFA", "review_count": 771, "categories": [{"alias": "tacos", "title": "Tacos"}], "rating": 4.0, "coordinates": {"latitude": 37.6787776, "longitude": -121.87491}, "transactions": ["pickup", "delivery"], "price": "$$", "location": {"address1": "1989 Santa Rita Rd", "address2": "Ste J", "address3": "", "city": "Pleasanton", "zip_code": "94566", "country": "US", "state": "CA", "display_address": ["1989 Santa Rita Rd", "Ste J", "Pleasanton, CA 94566"]}, "phone": "+19254170408", "display_phone": "(925) 417-0408", "distance": 9132.115418921176}, {"id": "rCo8ehSBQa1OyS6Vud5k6Q", "alias": "whole-foods-market-dublin-4", "name": "Whole Foods Market", "image_url": "https://s3-media3.fl.yelpcdn.com/bphoto/_4K7C17QhClS7TpKrxxX4Q/o.jpg", "is_closed": false, "url": "https://www.yelp.com/biz/whole-foods-market-dublin-4?adjust_creative=xeSzjzfHY0IaghaPzcqsFA&utm_campaign=yelp_api_v3&utm_medium=api_v3_business_search&utm_source=xeSzjzfHY0IaghaPzcqsFA", "review_count": 443, "categories": [{"alias": "grocery", "title": "Grocery"}, {"alias": "healthmarkets", "title": "Health Markets"}, {"alias": "organic_stores", "title": "Organic Stores"}], "rating": 3.5, "coordinates": {"latitude": 37.70564819, "longitude": -121.8897771}, "transactions": [], "price": "$$", "location": {"address1": "5200 Dublin Blvd", "address2": "", "address3": "", "city": "Dublin", "zip_code": "94568", "country": "US", "state": "CA", "display_address": ["5200 Dublin Blvd", "Dublin, CA 94568"]}, "phone": "+19254522226", "display_phone": "(925) 452-2226", "distance": 10742.964315997022}, {"id": "BmeSJ1s_xhbkEpVQpx-34Q", "alias": "koi-palace-dublin", "name": "Koi Palace", "image_url": "https://s3-media3.fl.yelpcdn.com/bphoto/shlGHWQj0aGnxPJJe5pBHg/o.jpg", "is_closed": false, "url": "https://www.yelp.com/biz/koi-palace-dublin?adjust_creative=xeSzjzfHY0IaghaPzcqsFA&utm_campaign=yelp_api_v3&utm_medium=api_v3_business_search&utm_source=xeSzjzfHY0IaghaPzcqsFA", "review_count": 1780, "categories": [{"alias": "dimsum", "title": "Dim Sum"}, {"alias": "seafood", "title": "Seafood"}, {"alias": "cantonese", "title": "Cantonese"}], "rating": 3.5, "coordinates": {"latitude": 37.70515, "longitude": -121.87622}, "transactions": ["pickup", "delivery", "restaurant_reservation"], "price": "$$", "location": {"address1": "4288 Dublin Blvd", "address2": "Ste 213", "address3": "", "city": "Dublin", "zip_code": "94568", "country": "US", "state": "CA", "display_address": ["4288 Dublin Blvd", "Ste 213", "Dublin, CA 94568"]}, "phone": "+19258339090", "display_phone": "(925) 833-9090", "distance": 9536.922125558372}, {"id": "v6pR0FGMUA887u7UoFHoZA", "alias": "urban-plates-dublin-2", "name": "Urban Plates", "image_url": "https://s3-media1.fl.yelpcdn.com/bphoto/GpXL8Xf-6sauQ_RJ7XihCQ/o.jpg", "is_closed": false, "url": "https://www.yelp.com/biz/urban-plates-dublin-2?adjust_creative=xeSzjzfHY0IaghaPzcqsFA&utm_campaign=yelp_api_v3&utm_medium=api_v3_business_search&utm_source=xeSzjzfHY0IaghaPzcqsFA", "review_count": 1399, "categories": [{"alias": "newamerican", "title": "American (New)"}, {"alias": "salad", "title": "Salad"}, {"alias": "sandwiches", "title": "Sandwiches"}], "rating": 4.0, "coordinates": {"latitude": 37.7050311250779, "longitude": -121.88877069509813}, "transactions": ["pickup", "delivery"], "price": "$$", "location": {"address1": "5111 Martinelli Way", "address2": "", "address3": "", "city": "Dublin", "zip_code": "94568", "country": "US", "state": "CA", "display_address": ["5111 Martinelli Way", "Dublin, CA 94568"]}, "phone": "+19257508011", "display_phone": "(925) 750-8011", "distance": 10638.991410841994}, {"id": "A3JL1LhpW_Mm1BepyNJACw", "alias": "young-dong-tofu-house-dublin", "name": "Young Dong Tofu House", "image_url": "https://s3-media2.fl.yelpcdn.com/bphoto/OJfNwFQPZ61cGORZLnB6Gg/o.jpg", "is_closed": false, "url": "https://www.yelp.com/biz/young-dong-tofu-house-dublin?adjust_creative=xeSzjzfHY0IaghaPzcqsFA&utm_campaign=yelp_api_v3&utm_medium=api_v3_business_search&utm_source=xeSzjzfHY0IaghaPzcqsFA", "review_count": 448, "categories": [{"alias": "korean", "title": "Korean"}, {"alias": "bbq", "title": "Barbeque"}], "rating": 3.5, "coordinates": {"latitude": 37.7043968743816, "longitude": -121.938268469201}, "transactions": ["delivery"], "price": "$$", "location": {"address1": "7268 San Ramon Rd", "address2": "", "address3": "", "city": "Dublin", "zip_code": "94568", "country": "US", "state": "CA", "display_address": ["7268 San Ramon Rd", "Dublin, CA 94568"]}, "phone": "+19255510825", "display_phone": "(925) 551-0825", "distance": 14862.623033611331}, {"id": "bo03bfhs_5o8ju-FP7tw1Q", "alias": "ramen-101-dublin", "name": "Ramen 101", "image_url": "https://s3-media1.fl.yelpcdn.com/bphoto/-kOGj5OsDcGr7gHov7nz-A/o.jpg", "is_closed": false, "url": "https://www.yelp.com/biz/ramen-101-dublin?adjust_creative=xeSzjzfHY0IaghaPzcqsFA&utm_campaign=yelp_api_v3&utm_medium=api_v3_business_search&utm_source=xeSzjzfHY0IaghaPzcqsFA", "review_count": 417, "categories": [{"alias": "ramen", "title": "Ramen"}], "rating": 3.5, "coordinates": {"latitude": 37.705328, "longitude": -121.851286}, "transactions": ["pickup", "delivery"], "price": "$$", "location": {"address1": "3878 Fallon Rd", "address2": "", "address3": null, "city": "Dublin", "zip_code": "94568", "country": "US", "state": "CA", "display_address": ["3878 Fallon Rd", "Dublin, CA 94568"]}, "phone": "+19253618515", "display_phone": "(925) 361-8515", "distance": 7533.293052412015}, {"id": "A5VGNzVfAZ3OyAILk8HTCQ", "alias": "11-o-cluck-san-ramon-2", "name": "11 O Cluck", "image_url": "https://s3-media2.fl.yelpcdn.com/bphoto/lehOcR17fqPPfdNWcv9gqg/o.jpg", "is_closed": false, "url": "https://www.yelp.com/biz/11-o-cluck-san-ramon-2?adjust_creative=xeSzjzfHY0IaghaPzcqsFA&utm_campaign=yelp_api_v3&utm_medium=api_v3_business_search&utm_source=xeSzjzfHY0IaghaPzcqsFA", "review_count": 341, "categories": [{"alias": "asianfusion", "title": "Asian Fusion"}, {"alias": "chickenshop", "title": "Chicken Shop"}, {"alias": "bbq", "title": "Barbeque"}], "rating": 4.0, "coordinates": {"latitude": 37.774039430027514, "longitude": -121.97632847055218}, "transactions": ["pickup", "delivery"], "price": "$$", "location": {"address1": "2491 San Ramon Valley Blvd", "address2": "Ste 1", "address3": null, "city": "San Ramon", "zip_code": "94583", "country": "US", "state": "CA", "display_address": ["2491 San Ramon Valley Blvd", "Ste 1", "San Ramon, CA 94583"]}, "phone": "+19257185811", "display_phone": "(925) 718-5811", "distance": 20818.99694581173}, {"id": "k5nhzIYbpxjzJTJwQ1nq4A", "alias": "teriyaki-plus-2-pleasanton", "name": "Teriyaki Plus 2", "image_url": "", "is_closed": false, "url": "https://www.yelp.com/biz/teriyaki-plus-2-pleasanton?adjust_creative=xeSzjzfHY0IaghaPzcqsFA&utm_campaign=yelp_api_v3&utm_medium=api_v3_business_search&utm_source=xeSzjzfHY0IaghaPzcqsFA", "review_count": 1, "categories": [{"alias": "restaurants", "title": "Restaurants"}], "rating": 3.0, "coordinates": {"latitude": 37.69136, "longitude": -121.87696}, "transactions": [], "location": {"address1": "3170 Santa Rita Rd", "address2": "Ste A2", "address3": "", "city": "Pleasanton", "zip_code": "94566", "country": "US", "state": "CA", "display_address": ["3170 Santa Rita Rd", "Ste A2", "Pleasanton, CA 94566"]}, "phone": "+19256008989", "display_phone": "(925) 600-8989", "distance": 9301.400093627446}, {"id": "JtDdfmPPUbG1O2nZVxmm_g", "alias": "shish-grill-san-ramon", "name": "Shish Grill", "image_url": "https://s3-media1.fl.yelpcdn.com/bphoto/NKjxXdCLzoNxdJgBt02MPw/o.jpg", "is_closed": false, "url": "https://www.yelp.com/biz/shish-grill-san-ramon?adjust_creative=xeSzjzfHY0IaghaPzcqsFA&utm_campaign=yelp_api_v3&utm_medium=api_v3_business_search&utm_source=xeSzjzfHY0IaghaPzcqsFA", "review_count": 815, "categories": [{"alias": "mediterranean", "title": "Mediterranean"}, {"alias": "greek", "title": "Greek"}, {"alias": "lebanese", "title": "Lebanese"}], "rating": 4.5, "coordinates": {"latitude": 37.76277461364092, "longitude": -121.95263062565759}, "transactions": ["pickup", "delivery"], "price": "$$", "location": {"address1": "1061 Market Pl", "address2": "Ste A", "address3": "", "city": "San Ramon", "zip_code": "94583", "country": "US", "state": "CA", "display_address": ["1061 Market Pl", "Ste A", "San Ramon, CA 94583"]}, "phone": "+19254153270", "display_phone": "(925) 415-3270", "distance": 18388.495517057494}, {"id": "4AOp2a83MZJQQgcWQM6HKQ", "alias": "85-c-bakery-cafe-pleasanton-pleasanton", "name": "85\u00b0C Bakery Cafe-Pleasanton", "image_url": "https://s3-media3.fl.yelpcdn.com/bphoto/su-bSBAt9FAvGisrOT_HDQ/o.jpg", "is_closed": false, "url": "https://www.yelp.com/biz/85-c-bakery-cafe-pleasanton-pleasanton?adjust_creative=xeSzjzfHY0IaghaPzcqsFA&utm_campaign=yelp_api_v3&utm_medium=api_v3_business_search&utm_source=xeSzjzfHY0IaghaPzcqsFA", "review_count": 429, "categories": [{"alias": "bakeries", "title": "Bakeries"}, {"alias": "coffee", "title": "Coffee & Tea"}, {"alias": "cakeshop", "title": "Patisserie/Cake Shop"}], "rating": 3.5, "coordinates": {"latitude": 37.696913177737464, "longitude": -121.848963}, "transactions": ["delivery"], "price": "$$", "location": {"address1": "2725 Stoneridge Dr", "address2": "Ste 101", "address3": null, "city": "Pleasanton", "zip_code": "94588", "country": "US", "state": "CA", "display_address": ["2725 Stoneridge Dr", "Ste 101", "Pleasanton, CA 94588"]}, "phone": "+19252011775", "display_phone": "(925) 201-1775", "distance": 7023.895671915062}, {"id": "Q6t_a10JXrKJqPkYpbcOUA", "alias": "super-grill-and-breakfast-pleasanton", "name": "Super Grill & Breakfast", "image_url": "https://s3-media3.fl.yelpcdn.com/bphoto/PrdvsuatgF_F3p3fC60_ZQ/o.jpg", "is_closed": false, "url": "https://www.yelp.com/biz/super-grill-and-breakfast-pleasanton?adjust_creative=xeSzjzfHY0IaghaPzcqsFA&utm_campaign=yelp_api_v3&utm_medium=api_v3_business_search&utm_source=xeSzjzfHY0IaghaPzcqsFA", "review_count": 416, "categories": [{"alias": "burgers", "title": "Burgers"}, {"alias": "breakfast_brunch", "title": "Breakfast & Brunch"}, {"alias": "fishnchips", "title": "Fish & Chips"}], "rating": 4.0, "coordinates": {"latitude": 37.698145, "longitude": -121.87523}, "transactions": ["delivery"], "price": "$$", "location": {"address1": "4211 Rosewood Dr", "address2": "Ste 1A", "address3": "", "city": "Pleasanton", "zip_code": "94588", "country": "US", "state": "CA", "display_address": ["4211 Rosewood Dr", "Ste 1A", "Pleasanton, CA 94588"]}, "phone": "+19254636310", "display_phone": "(925) 463-6310", "distance": 9279.464669039864}, {"id": "TEbKYlGHwmHJEGQy7Lo7YQ", "alias": "genes-fine-foods-pleasanton", "name": "Gene's Fine Foods", "image_url": "https://s3-media3.fl.yelpcdn.com/bphoto/kE4zeDGA00-zwGFCZoGf6g/o.jpg", "is_closed": false, "url": "https://www.yelp.com/biz/genes-fine-foods-pleasanton?adjust_creative=xeSzjzfHY0IaghaPzcqsFA&utm_campaign=yelp_api_v3&utm_medium=api_v3_business_search&utm_source=xeSzjzfHY0IaghaPzcqsFA", "review_count": 180, "categories": [{"alias": "grocery", "title": "Grocery"}], "rating": 3.5, "coordinates": {"latitude": 37.6758270263672, "longitude": -121.895469665527}, "transactions": ["delivery"], "price": "$$$", "location": {"address1": "2803 Hopyard Rd", "address2": "", "address3": "", "city": "Pleasanton", "zip_code": "94588", "country": "US", "state": "CA", "display_address": ["2803 Hopyard Rd", "Pleasanton, CA 94588"]}, "phone": "+19258468220", "display_phone": "(925) 846-8220", "distance": 10801.186392814423}, {"id": "Zk-fqbYfOiU8jqDwv22Dbw", "alias": "andy-and-yus-pleasanton", "name": "Andy & Yu's", "image_url": "https://s3-media3.fl.yelpcdn.com/bphoto/rdKnLZkHHYQw0OiNRROecA/o.jpg", "is_closed": false, "url": "https://www.yelp.com/biz/andy-and-yus-pleasanton?adjust_creative=xeSzjzfHY0IaghaPzcqsFA&utm_campaign=yelp_api_v3&utm_medium=api_v3_business_search&utm_source=xeSzjzfHY0IaghaPzcqsFA", "review_count": 456, "categories": [{"alias": "chinese", "title": "Chinese"}], "rating": 4.0, "coordinates": {"latitude": 37.66256, "longitude": -121.87594}, "transactions": ["pickup", "delivery", "restaurant_reservation"], "price": "$$", "location": {"address1": "348 Saint Mary St", "address2": null, "address3": "", "city": "Pleasanton", "zip_code": "94566", "country": "US", "state": "CA", "display_address": ["348 Saint Mary St", "Pleasanton, CA 94566"]}, "phone": "+19257508888", "display_phone": "(925) 750-8888", "distance": 9290.22457085676}, {"id": "BxrzwmDU4c-trIN2v3s0LA", "alias": "lucky-dublin-4", "name": "Lucky", "image_url": "https://s3-media2.fl.yelpcdn.com/bphoto/e5zGUIUsVznZTL8Wc2I3-A/o.jpg", "is_closed": false, "url": "https://www.yelp.com/biz/lucky-dublin-4?adjust_creative=xeSzjzfHY0IaghaPzcqsFA&utm_campaign=yelp_api_v3&utm_medium=api_v3_business_search&utm_source=xeSzjzfHY0IaghaPzcqsFA", "review_count": 85, "categories": [{"alias": "grocery", "title": "Grocery"}, {"alias": "bakeries", "title": "Bakeries"}], "rating": 3.5, "coordinates": {"latitude": 37.7056822, "longitude": -121.8537224}, "transactions": [], "price": "$$", "location": {"address1": "2840 Dublin Blvd", "address2": "", "address3": null, "city": "Dublin", "zip_code": "94568", "country": "US", "state": "CA", "display_address": ["2840 Dublin Blvd", "Dublin, CA 94568"]}, "phone": "+19254522077", "display_phone": "(925) 452-2077", "distance": 7692.29321514371}, {"id": "WKkARIK1H4gNccPgvE75Ew", "alias": "p-f-changs-pleasanton-2", "name": "P.F. Chang's", "image_url": "https://s3-media1.fl.yelpcdn.com/bphoto/2COXP7xU1xbKL35lyV2iEw/o.jpg", "is_closed": false, "url": "https://www.yelp.com/biz/p-f-changs-pleasanton-2?adjust_creative=xeSzjzfHY0IaghaPzcqsFA&utm_campaign=yelp_api_v3&utm_medium=api_v3_business_search&utm_source=xeSzjzfHY0IaghaPzcqsFA", "review_count": 921, "categories": [{"alias": "asianfusion", "title": "Asian Fusion"}, {"alias": "chinese", "title": "Chinese"}], "rating": 2.5, "coordinates": {"latitude": 37.6935273, "longitude": -121.928858}, "transactions": ["pickup", "delivery"], "price": "$$", "location": {"address1": "1330 Stoneridge Mall Rd", "address2": "", "address3": "Stoneridge Mall", "city": "Pleasanton", "zip_code": "94588", "country": "US", "state": "CA", "display_address": ["1330 Stoneridge Mall Rd", "Stoneridge Mall", "Pleasanton, CA 94588"]}, "phone": "+19252249916", "display_phone": "(925) 224-9916", "distance": 13858.34093003384}, {"id": "k1oP1efR6xTGhd5ARYTC_w", "alias": "draegers-market-danville", "name": "Draeger's Market", "image_url": "https://s3-media2.fl.yelpcdn.com/bphoto/cJGXfk8gY7BHz3cu0d7-6Q/o.jpg", "is_closed": false, "url": "https://www.yelp.com/biz/draegers-market-danville?adjust_creative=xeSzjzfHY0IaghaPzcqsFA&utm_campaign=yelp_api_v3&utm_medium=api_v3_business_search&utm_source=xeSzjzfHY0IaghaPzcqsFA", "review_count": 244, "categories": [{"alias": "grocery", "title": "Grocery"}, {"alias": "gourmet", "title": "Specialty Food"}, {"alias": "cookingschools", "title": "Cooking Schools"}], "rating": 3.5, "coordinates": {"latitude": 37.801209919265524, "longitude": -121.91879454287923}, "transactions": [], "price": "$$$", "location": {"address1": "4100 Blackhawk Plz Cir", "address2": "", "address3": "", "city": "Danville", "zip_code": "94506", "country": "US", "state": "CA", "display_address": ["4100 Blackhawk Plz Cir", "Danville, CA 94506"]}, "phone": "+19256485800", "display_phone": "(925) 648-5800", "distance": 18723.885444440544}, {"id": "9cOrOmBSzyABekKKXJG-6A", "alias": "thai-basil-express-dublin", "name": "Thai Basil Express", "image_url": "https://s3-media1.fl.yelpcdn.com/bphoto/bwoExJ1Bc7jrZZ0VOHG7Pg/o.jpg", "is_closed": false, "url": "https://www.yelp.com/biz/thai-basil-express-dublin?adjust_creative=xeSzjzfHY0IaghaPzcqsFA&utm_campaign=yelp_api_v3&utm_medium=api_v3_business_search&utm_source=xeSzjzfHY0IaghaPzcqsFA", "review_count": 798, "categories": [{"alias": "thai", "title": "Thai"}], "rating": 3.5, "coordinates": {"latitude": 37.705309, "longitude": -121.876261}, "transactions": ["delivery"], "price": "$$", "location": {"address1": "4288 Dublin Blvd", "address2": "Ste 117", "address3": "", "city": "Dublin", "zip_code": "94568", "country": "US", "state": "CA", "display_address": ["4288 Dublin Blvd", "Ste 117", "Dublin, CA 94568"]}, "phone": "+19258035988", "display_phone": "(925) 803-5988", "distance": 9594.289319203053}, {"id": "nRDOWctNK32VdgxMtsfd4Q", "alias": "99-ranch-market-pleasanton-2", "name": "99 Ranch Market", "image_url": "https://s3-media4.fl.yelpcdn.com/bphoto/VEEQpG4_LWVMgL_uSgqO7w/o.jpg", "is_closed": false, "url": "https://www.yelp.com/biz/99-ranch-market-pleasanton-2?adjust_creative=xeSzjzfHY0IaghaPzcqsFA&utm_campaign=yelp_api_v3&utm_medium=api_v3_business_search&utm_source=xeSzjzfHY0IaghaPzcqsFA", "review_count": 86, "categories": [{"alias": "intlgrocery", "title": "International Grocery"}, {"alias": "markets", "title": "Fruits & Veggies"}, {"alias": "bakeries", "title": "Bakeries"}], "rating": 3.0, "coordinates": {"latitude": 37.6955285, "longitude": -121.8495894}, "transactions": [], "price": "$$", "location": {"address1": "2701 Stoneridge Dr", "address2": null, "address3": "", "city": "Pleasanton", "zip_code": "94588", "country": "US", "state": "CA", "display_address": ["2701 Stoneridge Dr", "Pleasanton, CA 94588"]}, "phone": "+19255946899", "display_phone": "(925) 594-6899", "distance": 7034.735461316665}, {"id": "PHjlUPYxzEUyxw0orp0sEg", "alias": "pho-sam-restaurant-san-ramon", "name": "Pho Sam Restaurant", "image_url": "https://s3-media3.fl.yelpcdn.com/bphoto/lk2Bff8CodruXxcj-7WGyg/o.jpg", "is_closed": false, "url": "https://www.yelp.com/biz/pho-sam-restaurant-san-ramon?adjust_creative=xeSzjzfHY0IaghaPzcqsFA&utm_campaign=yelp_api_v3&utm_medium=api_v3_business_search&utm_source=xeSzjzfHY0IaghaPzcqsFA", "review_count": 508, "categories": [{"alias": "vietnamese", "title": "Vietnamese"}], "rating": 4.0, "coordinates": {"latitude": 37.772875, "longitude": -121.9737909}, "transactions": ["delivery"], "price": "$$", "location": {"address1": "2550 San Ramon Valley Blvd", "address2": "Ste C", "address3": "", "city": "San Ramon", "zip_code": "94583", "country": "US", "state": "CA", "display_address": ["2550 San Ramon Valley Blvd", "Ste C", "San Ramon, CA 94583"]}, "phone": "+19258382347", "display_phone": "(925) 838-2347", "distance": 20561.10869497425}, {"id": "pZ2M4OMN_LFJKet0Zkx5fQ", "alias": "high-tech-burrito-blackhawk-blackhawk", "name": "High Tech Burrito - Blackhawk", "image_url": "https://s3-media4.fl.yelpcdn.com/bphoto/_GyEpoPkdNJ34WcHfxdn7g/o.jpg", "is_closed": false, "url": "https://www.yelp.com/biz/high-tech-burrito-blackhawk-blackhawk?adjust_creative=xeSzjzfHY0IaghaPzcqsFA&utm_campaign=yelp_api_v3&utm_medium=api_v3_business_search&utm_source=xeSzjzfHY0IaghaPzcqsFA", "review_count": 143, "categories": [{"alias": "mexican", "title": "Mexican"}], "rating": 3.0, "coordinates": {"latitude": 37.7978115, "longitude": -121.9195994}, "transactions": ["pickup", "delivery"], "price": "$", "location": {"address1": "3452 Camino Tassajara", "address2": "", "address3": "", "city": "Blackhawk", "zip_code": "94506", "country": "US", "state": "CA", "display_address": ["3452 Camino Tassajara", "Blackhawk, CA 94506"]}, "phone": "+19257367779", "display_phone": "(925) 736-7779", "distance": 18500.831114805686}, {"id": "yhuGN7ndwX33MZmr0Q1wQw", "alias": "khyber-pass-kabob-dublin", "name": "Khyber Pass Kabob", "image_url": "https://s3-media1.fl.yelpcdn.com/bphoto/ig8nIcL4pq-6aBF8ZowYgA/o.jpg", "is_closed": false, "url": "https://www.yelp.com/biz/khyber-pass-kabob-dublin?adjust_creative=xeSzjzfHY0IaghaPzcqsFA&utm_campaign=yelp_api_v3&utm_medium=api_v3_business_search&utm_source=xeSzjzfHY0IaghaPzcqsFA", "review_count": 1520, "categories": [{"alias": "afghani", "title": "Afghan"}, {"alias": "desserts", "title": "Desserts"}, {"alias": "icecream", "title": "Ice Cream & Frozen Yogurt"}], "rating": 4.5, "coordinates": {"latitude": 37.712259, "longitude": -121.927367}, "transactions": ["delivery"], "price": "$$", "location": {"address1": "7467 Village Pkwy", "address2": "Ste 9", "address3": "", "city": "Dublin", "zip_code": "94568", "country": "US", "state": "CA", "display_address": ["7467 Village Pkwy", "Ste 9", "Dublin, CA 94568"]}, "phone": "+19258286000", "display_phone": "(925) 828-6000", "distance": 14125.63211611197}, {"id": "jV0f5TVXEaE25gRh30gVGg", "alias": "snowflake-desserts-pleasanton", "name": "Snowflake Desserts", "image_url": "https://s3-media2.fl.yelpcdn.com/bphoto/aB3J88sE0sW4DC7YK7mgxA/o.jpg", "is_closed": false, "url": "https://www.yelp.com/biz/snowflake-desserts-pleasanton?adjust_creative=xeSzjzfHY0IaghaPzcqsFA&utm_campaign=yelp_api_v3&utm_medium=api_v3_business_search&utm_source=xeSzjzfHY0IaghaPzcqsFA", "review_count": 231, "categories": [{"alias": "desserts", "title": "Desserts"}, {"alias": "bubbletea", "title": "Bubble Tea"}, {"alias": "icecream", "title": "Ice Cream & Frozen Yogurt"}], "rating": 3.5, "coordinates": {"latitude": 37.695719922348324, "longitude": -121.85051926441125}, "transactions": [], "price": "$$", "location": {"address1": "2693 Stoneridge Dr", "address2": "Ste 101", "address3": null, "city": "Pleasanton", "zip_code": "94588", "country": "US", "state": "CA", "display_address": ["2693 Stoneridge Dr", "Ste 101", "Pleasanton, CA 94588"]}, "phone": "+19257507648", "display_phone": "(925) 750-7648", "distance": 7119.267892952895}, {"id": "0mH4s-OtDiWWK1-2ch3z8g", "alias": "paris-baguette-dublin-6", "name": "Paris Baguette", "image_url": "https://s3-media1.fl.yelpcdn.com/bphoto/lXRf8y8TG6CItU3jw5eYQQ/o.jpg", "is_closed": false, "url": "https://www.yelp.com/biz/paris-baguette-dublin-6?adjust_creative=xeSzjzfHY0IaghaPzcqsFA&utm_campaign=yelp_api_v3&utm_medium=api_v3_business_search&utm_source=xeSzjzfHY0IaghaPzcqsFA", "review_count": 494, "categories": [{"alias": "bakeries", "title": "Bakeries"}, {"alias": "coffee", "title": "Coffee & Tea"}, {"alias": "cakeshop", "title": "Patisserie/Cake Shop"}], "rating": 4.0, "coordinates": {"latitude": 37.703421, "longitude": -121.933946}, "transactions": [], "price": "$$", "location": {"address1": "7150 Regional St", "address2": null, "address3": null, "city": "Dublin", "zip_code": "94568", "country": "US", "state": "CA", "display_address": ["7150 Regional St", "Dublin, CA 94568"]}, "phone": "+19253615100", "display_phone": "(925) 361-5100", "distance": 14468.701924678175}, {"id": "rzQT1sugRt7AOwSaad0xRw", "alias": "mayflower-restaurant-dublin", "name": "Mayflower Restaurant", "image_url": "https://s3-media3.fl.yelpcdn.com/bphoto/OaFfrRo4m3Rd3DJ21KgRjA/o.jpg", "is_closed": false, "url": "https://www.yelp.com/biz/mayflower-restaurant-dublin?adjust_creative=xeSzjzfHY0IaghaPzcqsFA&utm_campaign=yelp_api_v3&utm_medium=api_v3_business_search&utm_source=xeSzjzfHY0IaghaPzcqsFA", "review_count": 652, "categories": [{"alias": "seafood", "title": "Seafood"}, {"alias": "dimsum", "title": "Dim Sum"}, {"alias": "cantonese", "title": "Cantonese"}], "rating": 3.5, "coordinates": {"latitude": 37.7040731186667, "longitude": -121.865982122577}, "transactions": ["pickup", "delivery"], "price": "$$", "location": {"address1": "4086 Grafton St", "address2": "", "address3": "", "city": "Dublin", "zip_code": "94568", "country": "US", "state": "CA", "display_address": ["4086 Grafton St", "Dublin, CA 94568"]}, "phone": "+19255518088", "display_phone": "(925) 551-8088", "distance": 8692.52267141309}, {"id": "75fwXHY422itfOmU3jX9xg", "alias": "trader-joes-pleasanton-2", "name": "Trader Joe's", "image_url": "https://s3-media1.fl.yelpcdn.com/bphoto/PWu4JUezmPYd7etu-4Z4Fg/o.jpg", "is_closed": false, "url": "https://www.yelp.com/biz/trader-joes-pleasanton-2?adjust_creative=xeSzjzfHY0IaghaPzcqsFA&utm_campaign=yelp_api_v3&utm_medium=api_v3_business_search&utm_source=xeSzjzfHY0IaghaPzcqsFA", "review_count": 302, "categories": [{"alias": "grocery", "title": "Grocery"}], "rating": 4.0, "coordinates": {"latitude": 37.6967871, "longitude": -121.8768923}, "transactions": [], "price": "$$", "location": {"address1": "3903 Santa Rita Rd", "address2": "", "address3": "Rose Pavilion", "city": "Pleasanton", "zip_code": "94588", "country": "US", "state": "CA", "display_address": ["3903 Santa Rita Rd", "Rose Pavilion", "Pleasanton, CA 94588"]}, "phone": "+19254680763", "display_phone": "(925) 468-0763", "distance": 9402.513795917048}, {"id": "faJSfb2a_YXuXwvHqHFgNA", "alias": "outback-steakhouse-dublin", "name": "Outback Steakhouse", "image_url": "https://s3-media2.fl.yelpcdn.com/bphoto/gHon7sCQDXlwwPwuxHfrtg/o.jpg", "is_closed": false, "url": "https://www.yelp.com/biz/outback-steakhouse-dublin?adjust_creative=xeSzjzfHY0IaghaPzcqsFA&utm_campaign=yelp_api_v3&utm_medium=api_v3_business_search&utm_source=xeSzjzfHY0IaghaPzcqsFA", "review_count": 758, "categories": [{"alias": "steak", "title": "Steakhouses"}], "rating": 2.5, "coordinates": {"latitude": 37.6997370074088, "longitude": -121.93187822161}, "transactions": [], "price": "$$", "location": {"address1": "6505 Regional St", "address2": "", "address3": "", "city": "Dublin", "zip_code": "94568", "country": "US", "state": "CA", "display_address": ["6505 Regional St", "Dublin, CA 94568"]}, "phone": "+19258339335", "display_phone": "(925) 833-9335", "distance": 14217.883604959738}, {"id": "XxIqhFVtUZh48Q7NyTEg0g", "alias": "99-ranch-market-pleasanton", "name": "99 Ranch Market", "image_url": "https://s3-media2.fl.yelpcdn.com/bphoto/sU7EHLTVzPT-F_vn7HA-uA/o.jpg", "is_closed": false, "url": "https://www.yelp.com/biz/99-ranch-market-pleasanton?adjust_creative=xeSzjzfHY0IaghaPzcqsFA&utm_campaign=yelp_api_v3&utm_medium=api_v3_business_search&utm_source=xeSzjzfHY0IaghaPzcqsFA", "review_count": 277, "categories": [{"alias": "grocery", "title": "Grocery"}, {"alias": "seafoodmarkets", "title": "Seafood Markets"}], "rating": 3.5, "coordinates": {"latitude": 37.699508, "longitude": -121.873245}, "transactions": [], "price": "$", "location": {"address1": "4299 Rosewood Dr", "address2": "", "address3": "", "city": "Pleasanton", "zip_code": "94588", "country": "US", "state": "CA", "display_address": ["4299 Rosewood Dr", "Pleasanton, CA 94588"]}, "phone": "+19254638899", "display_phone": "(925) 463-8899", "distance": 9159.964828812443}, {"id": "CR0pla4Uf0rUYM5uZVC62g", "alias": "pias-kitchen-indian-cuisine-danville", "name": "Pia's Kitchen Indian Cuisine", "image_url": "https://s3-media3.fl.yelpcdn.com/bphoto/dph-w1O8nvfZ3SGrzHTDpw/o.jpg", "is_closed": false, "url": "https://www.yelp.com/biz/pias-kitchen-indian-cuisine-danville?adjust_creative=xeSzjzfHY0IaghaPzcqsFA&utm_campaign=yelp_api_v3&utm_medium=api_v3_business_search&utm_source=xeSzjzfHY0IaghaPzcqsFA", "review_count": 267, "categories": [{"alias": "indpak", "title": "Indian"}], "rating": 4.5, "coordinates": {"latitude": 37.79814, "longitude": -121.92304}, "transactions": ["pickup", "delivery"], "price": "$$", "location": {"address1": "9000 Crow Canyon Rd", "address2": "Ste J", "address3": "", "city": "Danville", "zip_code": "94526", "country": "US", "state": "CA", "display_address": ["9000 Crow Canyon Rd", "Ste J", "Danville, CA 94526"]}, "phone": "+19257185458", "display_phone": "(925) 718-5458", "distance": 18715.621194203788}, {"id": "mUfcBzEq2xzE8yXEp8lXeA", "alias": "i-tea-pleasanton", "name": "i-Tea", "image_url": "https://s3-media1.fl.yelpcdn.com/bphoto/N_Z0-8_IC08lJDVIi3N4nQ/o.jpg", "is_closed": false, "url": "https://www.yelp.com/biz/i-tea-pleasanton?adjust_creative=xeSzjzfHY0IaghaPzcqsFA&utm_campaign=yelp_api_v3&utm_medium=api_v3_business_search&utm_source=xeSzjzfHY0IaghaPzcqsFA", "review_count": 116, "categories": [{"alias": "juicebars", "title": "Juice Bars & Smoothies"}, {"alias": "coffee", "title": "Coffee & Tea"}], "rating": 3.5, "coordinates": {"latitude": 37.66591, "longitude": -121.87418}, "transactions": ["delivery"], "price": "$$", "location": {"address1": "915 Main St", "address2": null, "address3": "", "city": "Pleasanton", "zip_code": "94566", "country": "US", "state": "CA", "display_address": ["915 Main St", "Pleasanton, CA 94566"]}, "phone": "+19252495989", "display_phone": "(925) 249-5989", "distance": 9076.159808461212}, {"id": "uGOV-Op8WqJ65gq9Znbnqw", "alias": "sugarmama-bakery-pleasanton", "name": "SugarMama Bakery", "image_url": "https://s3-media4.fl.yelpcdn.com/bphoto/g2m9VaiscMJel6SDPZeysQ/o.jpg", "is_closed": false, "url": "https://www.yelp.com/biz/sugarmama-bakery-pleasanton?adjust_creative=xeSzjzfHY0IaghaPzcqsFA&utm_campaign=yelp_api_v3&utm_medium=api_v3_business_search&utm_source=xeSzjzfHY0IaghaPzcqsFA", "review_count": 47, "categories": [{"alias": "bakeries", "title": "Bakeries"}], "rating": 4.0, "coordinates": {"latitude": 37.69097, "longitude": -121.92716}, "transactions": [], "price": "$$", "location": {"address1": "", "address2": "", "address3": "", "city": "Pleasanton", "zip_code": "94588", "country": "US", "state": "CA", "display_address": ["Pleasanton, CA 94588"]}, "phone": "+19254621167", "display_phone": "(925) 462-1167", "distance": 12418.996395872025}, {"id": "9uByLYXjQFksY6cpAQ_-7w", "alias": "99-ranch-market-dublin-2", "name": "99 Ranch Market", "image_url": "https://s3-media3.fl.yelpcdn.com/bphoto/jNrFGTztkBry2jbzhxiEyg/o.jpg", "is_closed": false, "url": "https://www.yelp.com/biz/99-ranch-market-dublin-2?adjust_creative=xeSzjzfHY0IaghaPzcqsFA&utm_campaign=yelp_api_v3&utm_medium=api_v3_business_search&utm_source=xeSzjzfHY0IaghaPzcqsFA", "review_count": 322, "categories": [{"alias": "seafoodmarkets", "title": "Seafood Markets"}, {"alias": "intlgrocery", "title": "International Grocery"}], "rating": 3.5, "coordinates": {"latitude": 37.7071783314427, "longitude": -121.933259962924}, "transactions": [], "price": "$", "location": {"address1": "7333 Regional St", "address2": "", "address3": "", "city": "Dublin", "zip_code": "94568", "country": "US", "state": "CA", "display_address": ["7333 Regional St", "Dublin, CA 94568"]}, "phone": "+19258333999", "display_phone": "(925) 833-3999", "distance": 14493.987630674725}, {"id": "zP_K3O5kZPBjJO1j1u-O3A", "alias": "irvington-farmers-market-fremont", "name": "Irvington Farmers' Market", "image_url": "https://s3-media1.fl.yelpcdn.com/bphoto/Xyq9JtkzPKzkWas_jKED8g/o.jpg", "is_closed": false, "url": "https://www.yelp.com/biz/irvington-farmers-market-fremont?adjust_creative=xeSzjzfHY0IaghaPzcqsFA&utm_campaign=yelp_api_v3&utm_medium=api_v3_business_search&utm_source=xeSzjzfHY0IaghaPzcqsFA", "review_count": 126, "categories": [{"alias": "farmersmarket", "title": "Farmers Market"}, {"alias": "grocery", "title": "Grocery"}, {"alias": "markets", "title": "Fruits & Veggies"}], "rating": 4.0, "coordinates": {"latitude": 37.532909874493, "longitude": -121.960216136107}, "transactions": [], "price": "$$", "location": {"address1": "Bay St At Trimboli Way", "address2": "", "address3": "", "city": "Fremont", "zip_code": "94538", "country": "US", "state": "CA", "display_address": ["Bay St At Trimboli Way", "Fremont, CA 94538"]}, "phone": "+19258259090", "display_phone": "(925) 825-9090", "distance": 23173.807485318353}, {"id": "dC2c1gzOD7XMVebbybxQRA", "alias": "raleys-pleasanton", "name": "Raley's", "image_url": "https://s3-media4.fl.yelpcdn.com/bphoto/7RjgyneDkW_VnfyTunxDeA/o.jpg", "is_closed": false, "url": "https://www.yelp.com/biz/raleys-pleasanton?adjust_creative=xeSzjzfHY0IaghaPzcqsFA&utm_campaign=yelp_api_v3&utm_medium=api_v3_business_search&utm_source=xeSzjzfHY0IaghaPzcqsFA", "review_count": 137, "categories": [{"alias": "grocery", "title": "Grocery"}, {"alias": "delis", "title": "Delis"}, {"alias": "beer_and_wine", "title": "Beer, Wine & Spirits"}], "rating": 4.0, "coordinates": {"latitude": 37.651773348932686, "longitude": -121.87856384107855}, "transactions": [], "price": "$$", "location": {"address1": "5420 Sunol Blvd", "address2": "", "address3": "", "city": "Pleasanton", "zip_code": "94566", "country": "US", "state": "CA", "display_address": ["5420 Sunol Blvd", "Pleasanton, CA 94566"]}, "phone": "+19258464471", "display_phone": "(925) 846-4471", "distance": 9813.787348933687}, {"id": "6fsQBl5UzfeOQp9dytgujA", "alias": "bks-bistro-fremont", "name": "BK's Bistro", "image_url": "https://s3-media1.fl.yelpcdn.com/bphoto/GlkJX7fsu0irdWk8VAcs0w/o.jpg", "is_closed": false, "url": "https://www.yelp.com/biz/bks-bistro-fremont?adjust_creative=xeSzjzfHY0IaghaPzcqsFA&utm_campaign=yelp_api_v3&utm_medium=api_v3_business_search&utm_source=xeSzjzfHY0IaghaPzcqsFA", "review_count": 936, "categories": [{"alias": "dimsum", "title": "Dim Sum"}, {"alias": "cantonese", "title": "Cantonese"}], "rating": 3.0, "coordinates": {"latitude": 37.547095, "longitude": -121.972661}, "transactions": ["delivery"], "price": "$$", "location": {"address1": "3113 Stevenson Blvd", "address2": "", "address3": "", "city": "Fremont", "zip_code": "94538", "country": "US", "state": "CA", "display_address": ["3113 Stevenson Blvd", "Fremont, CA 94538"]}, "phone": "+15107708818", "display_phone": "(510) 770-8818", "distance": 22928.48533234886}, {"id": "Hf4q0lFRRApiEOnrRKc1hw", "alias": "safeway-dublin-2", "name": "Safeway", "image_url": "https://s3-media2.fl.yelpcdn.com/bphoto/favIJyrT00Hlr53_1Yu1Mg/o.jpg", "is_closed": false, "url": "https://www.yelp.com/biz/safeway-dublin-2?adjust_creative=xeSzjzfHY0IaghaPzcqsFA&utm_campaign=yelp_api_v3&utm_medium=api_v3_business_search&utm_source=xeSzjzfHY0IaghaPzcqsFA", "review_count": 243, "categories": [{"alias": "grocery", "title": "Grocery"}], "rating": 2.5, "coordinates": {"latitude": 37.7066902, "longitude": -121.874053}, "transactions": [], "price": "$$", "location": {"address1": "4440 Tassajara Rd", "address2": "", "address3": "", "city": "Dublin", "zip_code": "94568", "country": "US", "state": "CA", "display_address": ["4440 Tassajara Rd", "Dublin, CA 94568"]}, "phone": "+19255514710", "display_phone": "(925) 551-4710", "distance": 9458.536604456356}, {"id": "rBABsUZbmv-2dB1NBSMw9A", "alias": "gold-chopsticks-restaurant-pleasanton", "name": "Gold Chopsticks Restaurant", "image_url": "https://s3-media1.fl.yelpcdn.com/bphoto/5Mj0_hcFCUXq78DjDsLXtQ/o.jpg", "is_closed": false, "url": "https://www.yelp.com/biz/gold-chopsticks-restaurant-pleasanton?adjust_creative=xeSzjzfHY0IaghaPzcqsFA&utm_campaign=yelp_api_v3&utm_medium=api_v3_business_search&utm_source=xeSzjzfHY0IaghaPzcqsFA", "review_count": 352, "categories": [{"alias": "chinese", "title": "Chinese"}], "rating": 3.5, "coordinates": {"latitude": 37.6913914, "longitude": -121.8769721}, "transactions": ["pickup", "delivery"], "price": "$$", "location": {"address1": "3170 Santa Rita Rd", "address2": "Ste A11", "address3": "", "city": "Pleasanton", "zip_code": "94566", "country": "US", "state": "CA", "display_address": ["3170 Santa Rita Rd", "Ste A11", "Pleasanton, CA 94566"]}, "phone": "+19258464568", "display_phone": "(925) 846-4568", "distance": 9301.280139042257}, {"id": "bEFp9K4js4-hSK_sevLtMQ", "alias": "foodnearu-dublin-2", "name": "FoodNearU", "image_url": "https://s3-media2.fl.yelpcdn.com/bphoto/82Br7K-OcQ6gUvnJQbWukA/o.jpg", "is_closed": false, "url": "https://www.yelp.com/biz/foodnearu-dublin-2?adjust_creative=xeSzjzfHY0IaghaPzcqsFA&utm_campaign=yelp_api_v3&utm_medium=api_v3_business_search&utm_source=xeSzjzfHY0IaghaPzcqsFA", "review_count": 28, "categories": [{"alias": "fooddeliveryservices", "title": "Food Delivery Services"}], "rating": 2.0, "coordinates": {"latitude": 37.7021521, "longitude": -121.9357918}, "transactions": [], "price": "$", "location": {"address1": "", "address2": null, "address3": "", "city": "Dublin", "zip_code": "94568", "country": "US", "state": "CA", "display_address": ["Dublin, CA 94568"]}, "phone": "+18665199155", "display_phone": "(866) 519-9155", "distance": 14602.696458191482}, {"id": "EEb0m7rWzHeC7A5YAoCGXA", "alias": "pizza-bello-pleasanton-2", "name": "Pizza Bello", "image_url": "https://s3-media1.fl.yelpcdn.com/bphoto/t5RKTVCWq8MBgi7ni8pJyA/o.jpg", "is_closed": false, "url": "https://www.yelp.com/biz/pizza-bello-pleasanton-2?adjust_creative=xeSzjzfHY0IaghaPzcqsFA&utm_campaign=yelp_api_v3&utm_medium=api_v3_business_search&utm_source=xeSzjzfHY0IaghaPzcqsFA", "review_count": 414, "categories": [{"alias": "pizza", "title": "Pizza"}, {"alias": "italian", "title": "Italian"}, {"alias": "gelato", "title": "Gelato"}], "rating": 4.5, "coordinates": {"latitude": 37.6769289633382, "longitude": -121.896643688093}, "transactions": ["delivery"], "price": "$$", "location": {"address1": "3037 Hopyard Rd", "address2": "Ste C", "address3": "", "city": "Pleasanton", "zip_code": "94588", "country": "US", "state": "CA", "display_address": ["3037 Hopyard Rd", "Ste C", "Pleasanton, CA 94588"]}, "phone": "+19252645996", "display_phone": "(925) 264-5996", "distance": 10931.009498388788}, {"id": "9_HuVJiAGF9EjCil0Hnl7A", "alias": "chilis-pleasanton-14", "name": "Chili's", "image_url": "https://s3-media4.fl.yelpcdn.com/bphoto/OrlPFT4c2m0dYndk1AyBvw/o.jpg", "is_closed": false, "url": "https://www.yelp.com/biz/chilis-pleasanton-14?adjust_creative=xeSzjzfHY0IaghaPzcqsFA&utm_campaign=yelp_api_v3&utm_medium=api_v3_business_search&utm_source=xeSzjzfHY0IaghaPzcqsFA", "review_count": 383, "categories": [{"alias": "tex-mex", "title": "Tex-Mex"}, {"alias": "tradamerican", "title": "American (Traditional)"}, {"alias": "bars", "title": "Bars"}], "rating": 2.5, "coordinates": {"latitude": 37.69262, "longitude": -121.90238}, "transactions": ["pickup", "delivery"], "price": "$$", "location": {"address1": "4801 Hopyard Rd", "address2": "", "address3": "", "city": "Pleasanton", "zip_code": "94588", "country": "US", "state": "CA", "display_address": ["4801 Hopyard Rd", "Pleasanton, CA 94588"]}, "phone": "+19257340911", "display_phone": "(925) 734-0911", "distance": 11587.310498561777}, {"id": "BXu9OEllZCNmAdYEtC51pQ", "alias": "whole-foods-market-san-ramon-2", "name": "Whole Foods Market", "image_url": "https://s3-media3.fl.yelpcdn.com/bphoto/lQEVuwQ5u-cQUWikSxSVzA/o.jpg", "is_closed": false, "url": "https://www.yelp.com/biz/whole-foods-market-san-ramon-2?adjust_creative=xeSzjzfHY0IaghaPzcqsFA&utm_campaign=yelp_api_v3&utm_medium=api_v3_business_search&utm_source=xeSzjzfHY0IaghaPzcqsFA", "review_count": 468, "categories": [{"alias": "grocery", "title": "Grocery"}, {"alias": "healthmarkets", "title": "Health Markets"}, {"alias": "organic_stores", "title": "Organic Stores"}], "rating": 3.5, "coordinates": {"latitude": 37.761762713115715, "longitude": -121.961301}, "transactions": [], "price": "$$$", "location": {"address1": "100 Sunset Dr", "address2": "", "address3": "", "city": "San Ramon", "zip_code": "94583", "country": "US", "state": "CA", "display_address": ["100 Sunset Dr", "San Ramon, CA 94583"]}, "phone": "+19253559000", "display_phone": "(925) 355-9000", "distance": 18994.877144996077}, {"id": "h7pDADQEg-5zGX7TbhTwzg", "alias": "safeway-dublin-6", "name": "Safeway", "image_url": "https://s3-media1.fl.yelpcdn.com/bphoto/MZhRbgmcZhFkS3V_AI7T3A/o.jpg", "is_closed": false, "url": "https://www.yelp.com/biz/safeway-dublin-6?adjust_creative=xeSzjzfHY0IaghaPzcqsFA&utm_campaign=yelp_api_v3&utm_medium=api_v3_business_search&utm_source=xeSzjzfHY0IaghaPzcqsFA", "review_count": 155, "categories": [{"alias": "servicestations", "title": "Gas Stations"}, {"alias": "convenience", "title": "Convenience Stores"}], "rating": 3.0, "coordinates": {"latitude": 37.706018212426166, "longitude": -121.92738675326304}, "transactions": [], "price": "$$", "location": {"address1": "7499 Dublin Blvd", "address2": "", "address3": "", "city": "Dublin", "zip_code": "94568", "country": "US", "state": "CA", "display_address": ["7499 Dublin Blvd", "Dublin, CA 94568"]}, "phone": "+19255564034", "display_phone": "(925) 556-4034", "distance": 13961.645675084457}, {"id": "uHdPRaBS5SqGr8kHzKhdKA", "alias": "safeway-pleasanton-4", "name": "Safeway", "image_url": "https://s3-media4.fl.yelpcdn.com/bphoto/NE5w1Cmx61kcbA_sKWiQmQ/o.jpg", "is_closed": false, "url": "https://www.yelp.com/biz/safeway-pleasanton-4?adjust_creative=xeSzjzfHY0IaghaPzcqsFA&utm_campaign=yelp_api_v3&utm_medium=api_v3_business_search&utm_source=xeSzjzfHY0IaghaPzcqsFA", "review_count": 155, "categories": [{"alias": "grocery", "title": "Grocery"}], "rating": 3.0, "coordinates": {"latitude": 37.6560808728586, "longitude": -121.89952604788513}, "transactions": [], "price": "$$", "location": {"address1": "6790 Bernal Ave", "address2": "", "address3": "", "city": "Pleasanton", "zip_code": "94566", "country": "US", "state": "CA", "display_address": ["6790 Bernal Ave", "Pleasanton, CA 94566"]}, "phone": "+19258468644", "display_phone": "(925) 846-8644", "distance": 11467.92501235454}, {"id": "-isHeury_3oJGU5kkzXJlg", "alias": "sprouts-farmers-market-dublin", "name": "Sprouts Farmers Market", "image_url": "https://s3-media2.fl.yelpcdn.com/bphoto/RsIIlXahamXZv4CrqwLMuQ/o.jpg", "is_closed": false, "url": "https://www.yelp.com/biz/sprouts-farmers-market-dublin?adjust_creative=xeSzjzfHY0IaghaPzcqsFA&utm_campaign=yelp_api_v3&utm_medium=api_v3_business_search&utm_source=xeSzjzfHY0IaghaPzcqsFA", "review_count": 355, "categories": [{"alias": "grocery", "title": "Grocery"}, {"alias": "healthmarkets", "title": "Health Markets"}, {"alias": "organic_stores", "title": "Organic Stores"}], "rating": 3.5, "coordinates": {"latitude": 37.70772478, "longitude": -121.92917589}, "transactions": [], "price": "$$", "location": {"address1": "7153 Amador Plaza Rd", "address2": "", "address3": "", "city": "Dublin", "zip_code": "94568", "country": "US", "state": "CA", "display_address": ["7153 Amador Plaza Rd", "Dublin, CA 94568"]}, "phone": "+19253071172", "display_phone": "(925) 307-1172", "distance": 14157.010900224795}, {"id": "ELYhTguDurXNIEKR6yT-mg", "alias": "the-habit-burger-grill-pleasanton-2", "name": "The Habit Burger Grill", "image_url": "https://s3-media4.fl.yelpcdn.com/bphoto/NP_2QpWs_vVyuIUJ-QqN0w/o.jpg", "is_closed": false, "url": "https://www.yelp.com/biz/the-habit-burger-grill-pleasanton-2?adjust_creative=xeSzjzfHY0IaghaPzcqsFA&utm_campaign=yelp_api_v3&utm_medium=api_v3_business_search&utm_source=xeSzjzfHY0IaghaPzcqsFA", "review_count": 450, "categories": [{"alias": "burgers", "title": "Burgers"}, {"alias": "sandwiches", "title": "Sandwiches"}, {"alias": "salad", "title": "Salad"}], "rating": 4.0, "coordinates": {"latitude": 37.65770884687408, "longitude": -121.89783860000003}, "transactions": ["delivery"], "price": "$", "location": {"address1": "6770 Bernal Ave.", "address2": "Suite 410", "address3": null, "city": "Pleasanton", "zip_code": "94588", "country": "US", "state": "CA", "display_address": ["6770 Bernal Ave.", "Suite 410", "Pleasanton, CA 94588"]}, "phone": "+19254853260", "display_phone": "(925) 485-3260", "distance": 11283.845533491718}, {"id": "9vPII2WHuIJAf8UeFdrJnA", "alias": "safeway-san-ramon", "name": "Safeway", "image_url": "https://s3-media1.fl.yelpcdn.com/bphoto/_-XJQZuzBoZ24_AEeo3CjQ/o.jpg", "is_closed": false, "url": "https://www.yelp.com/biz/safeway-san-ramon?adjust_creative=xeSzjzfHY0IaghaPzcqsFA&utm_campaign=yelp_api_v3&utm_medium=api_v3_business_search&utm_source=xeSzjzfHY0IaghaPzcqsFA", "review_count": 269, "categories": [{"alias": "grocery", "title": "Grocery"}], "rating": 2.5, "coordinates": {"latitude": 37.7748640117768, "longitude": -121.922062981671}, "transactions": [], "price": "$$", "location": {"address1": "11050 Bollinger Canyon Rd", "address2": "", "address3": "", "city": "San Ramon", "zip_code": "94582", "country": "US", "state": "CA", "display_address": ["11050 Bollinger Canyon Rd", "San Ramon, CA 94582"]}, "phone": "+19253592001", "display_phone": "(925) 359-2001", "distance": 16941.430488910042}, {"id": "L9U6g4zMqn5tvBwByFs6lA", "alias": "china-village-dublin", "name": "China Village", "image_url": "https://s3-media2.fl.yelpcdn.com/bphoto/AOYiFoXeisWSaT5RfclpiQ/o.jpg", "is_closed": false, "url": "https://www.yelp.com/biz/china-village-dublin?adjust_creative=xeSzjzfHY0IaghaPzcqsFA&utm_campaign=yelp_api_v3&utm_medium=api_v3_business_search&utm_source=xeSzjzfHY0IaghaPzcqsFA", "review_count": 399, "categories": [{"alias": "chinese", "title": "Chinese"}, {"alias": "asianfusion", "title": "Asian Fusion"}], "rating": 3.5, "coordinates": {"latitude": 37.704834, "longitude": -121.935893}, "transactions": ["delivery", "pickup"], "price": "$$", "location": {"address1": "7200 Regional St", "address2": "", "address3": "", "city": "Dublin", "zip_code": "94568", "country": "US", "state": "CA", "display_address": ["7200 Regional St", "Dublin, CA 94568"]}, "phone": "+19258295292", "display_phone": "(925) 829-5292", "distance": 14666.946093889463}, {"id": "mMb7C5TeW9UbUkxL52HS7Q", "alias": "safeway-fremont-3", "name": "Safeway", "image_url": "https://s3-media4.fl.yelpcdn.com/bphoto/v8kbwhRv2-oKJuZNoKEU2Q/o.jpg", "is_closed": false, "url": "https://www.yelp.com/biz/safeway-fremont-3?adjust_creative=xeSzjzfHY0IaghaPzcqsFA&utm_campaign=yelp_api_v3&utm_medium=api_v3_business_search&utm_source=xeSzjzfHY0IaghaPzcqsFA", "review_count": 179, "categories": [{"alias": "grocery", "title": "Grocery"}], "rating": 2.0, "coordinates": {"latitude": 37.53162494818064, "longitude": -121.95715134477463}, "transactions": [], "price": "$$", "location": {"address1": "3902 Washington Blvd", "address2": "", "address3": "", "city": "Fremont", "zip_code": "94538", "country": "US", "state": "CA", "display_address": ["3902 Washington Blvd", "Fremont, CA 94538"]}, "phone": "+15106571625", "display_phone": "(510) 657-1625", "distance": 23083.12567172153}, {"id": "1lvOzQdrwzLvVwfLBz4e1w", "alias": "the-habit-burger-grill-dublin-3", "name": "The Habit Burger Grill", "image_url": "https://s3-media3.fl.yelpcdn.com/bphoto/LJmvhZSQiTnWllWVk6D07w/o.jpg", "is_closed": false, "url": "https://www.yelp.com/biz/the-habit-burger-grill-dublin-3?adjust_creative=xeSzjzfHY0IaghaPzcqsFA&utm_campaign=yelp_api_v3&utm_medium=api_v3_business_search&utm_source=xeSzjzfHY0IaghaPzcqsFA", "review_count": 202, "categories": [{"alias": "burgers", "title": "Burgers"}, {"alias": "sandwiches", "title": "Sandwiches"}, {"alias": "salad", "title": "Salad"}], "rating": 3.5, "coordinates": {"latitude": 37.704987110822735, "longitude": -121.89152051597979}, "transactions": ["delivery"], "price": "$", "location": {"address1": "5291 Martinelli Way", "address2": null, "address3": "", "city": "Dublin", "zip_code": "94568", "country": "US", "state": "CA", "display_address": ["5291 Martinelli Way", "Dublin, CA 94568"]}, "phone": "+19254790847", "display_phone": "(925) 479-0847", "distance": 10870.633347863752}, {"id": "rUEoz6r7p3C_euc5b4EGuA", "alias": "village-wines-and-liquors-danville", "name": "Village Wines & Liquors", "image_url": "https://s3-media4.fl.yelpcdn.com/bphoto/WgFGybBF2m9iTVf8Wv0Hdw/o.jpg", "is_closed": false, "url": "https://www.yelp.com/biz/village-wines-and-liquors-danville?adjust_creative=xeSzjzfHY0IaghaPzcqsFA&utm_campaign=yelp_api_v3&utm_medium=api_v3_business_search&utm_source=xeSzjzfHY0IaghaPzcqsFA", "review_count": 15, "categories": [{"alias": "beer_and_wine", "title": "Beer, Wine & Spirits"}], "rating": 2.5, "coordinates": {"latitude": 37.7983205149794, "longitude": -121.9235903}, "transactions": ["delivery", "pickup"], "price": "$$", "location": {"address1": "9000 Crow Canyon Rd", "address2": "Ste F", "address3": "", "city": "Danville", "zip_code": "94506", "country": "US", "state": "CA", "display_address": ["9000 Crow Canyon Rd", "Ste F", "Danville, CA 94506"]}, "phone": "+19256481237", "display_phone": "(925) 648-1237", "distance": 18787.87036886473}, {"id": "Wy6HO7QfOIwCdvU2c5f5rQ", "alias": "lucky-pleasanton-2", "name": "Lucky", "image_url": "https://s3-media2.fl.yelpcdn.com/bphoto/xDqzsVjDw4QDV_lKRPOv5Q/o.jpg", "is_closed": false, "url": "https://www.yelp.com/biz/lucky-pleasanton-2?adjust_creative=xeSzjzfHY0IaghaPzcqsFA&utm_campaign=yelp_api_v3&utm_medium=api_v3_business_search&utm_source=xeSzjzfHY0IaghaPzcqsFA", "review_count": 92, "categories": [{"alias": "grocery", "title": "Grocery"}, {"alias": "bakeries", "title": "Bakeries"}], "rating": 2.5, "coordinates": {"latitude": 37.6825344, "longitude": -121.9054241}, "transactions": ["delivery", "pickup"], "price": "$$", "location": {"address1": "6155 W Las Positas", "address2": "", "address3": "", "city": "Pleasanton", "zip_code": "94566", "country": "US", "state": "CA", "display_address": ["6155 W Las Positas", "Pleasanton, CA 94566"]}, "phone": "+19254621520", "display_phone": "(925) 462-1520", "distance": 11708.169621713954}, {"id": "SOp1MzvQgGZ33xaVJdA16g", "alias": "armadillo-willys-bbq-dublin", "name": "Armadillo Willy's BBQ", "image_url": "https://s3-media3.fl.yelpcdn.com/bphoto/tcumKsyCUcBT174AQ837Gg/o.jpg", "is_closed": false, "url": "https://www.yelp.com/biz/armadillo-willys-bbq-dublin?adjust_creative=xeSzjzfHY0IaghaPzcqsFA&utm_campaign=yelp_api_v3&utm_medium=api_v3_business_search&utm_source=xeSzjzfHY0IaghaPzcqsFA", "review_count": 497, "categories": [{"alias": "bbq", "title": "Barbeque"}, {"alias": "catering", "title": "Caterers"}, {"alias": "tradamerican", "title": "American (Traditional)"}], "rating": 3.0, "coordinates": {"latitude": 37.7078268914396, "longitude": -121.873895748579}, "transactions": ["delivery", "pickup"], "price": "$$", "location": {"address1": "4480 Tassajara Rd", "address2": "", "address3": "", "city": "Dublin", "zip_code": "94568", "country": "US", "state": "CA", "display_address": ["4480 Tassajara Rd", "Dublin, CA 94568"]}, "phone": "+19258330400", "display_phone": "(925) 833-0400", "distance": 9487.522026357425}, {"id": "0z7XDbyEnkjI6LyCzztfLQ", "alias": "lucky-san-ramon-2", "name": "Lucky", "image_url": "https://s3-media4.fl.yelpcdn.com/bphoto/gHi9zIke2ojq309jHWpYCw/o.jpg", "is_closed": false, "url": "https://www.yelp.com/biz/lucky-san-ramon-2?adjust_creative=xeSzjzfHY0IaghaPzcqsFA&utm_campaign=yelp_api_v3&utm_medium=api_v3_business_search&utm_source=xeSzjzfHY0IaghaPzcqsFA", "review_count": 93, "categories": [{"alias": "grocery", "title": "Grocery"}, {"alias": "bakeries", "title": "Bakeries"}], "rating": 3.0, "coordinates": {"latitude": 37.7238252, "longitude": -121.9441113}, "transactions": ["delivery", "pickup"], "price": "$$", "location": {"address1": "21001 San Ramon Valley Blvd", "address2": "", "address3": "", "city": "San Ramon", "zip_code": "94583", "country": "US", "state": "CA", "display_address": ["21001 San Ramon Valley Blvd", "San Ramon, CA 94583"]}, "phone": "+19258281200", "display_phone": "(925) 828-1200", "distance": 15906.826110091912}, {"id": "LJv5A3AKCTRKSLuv43lprQ", "alias": "safeway-san-ramon-5", "name": "Safeway", "image_url": "https://s3-media1.fl.yelpcdn.com/bphoto/E9t32Yq_keOO9JS3rPPA8A/o.jpg", "is_closed": false, "url": "https://www.yelp.com/biz/safeway-san-ramon-5?adjust_creative=xeSzjzfHY0IaghaPzcqsFA&utm_campaign=yelp_api_v3&utm_medium=api_v3_business_search&utm_source=xeSzjzfHY0IaghaPzcqsFA", "review_count": 211, "categories": [{"alias": "grocery", "title": "Grocery"}], "rating": 2.5, "coordinates": {"latitude": 37.7731741, "longitude": -121.9767038}, "transactions": [], "price": "$$", "location": {"address1": "2505 San Ramon Valley Blvd", "address2": "", "address3": "", "city": "San Ramon", "zip_code": "94583", "country": "US", "state": "CA", "display_address": ["2505 San Ramon Valley Blvd", "San Ramon, CA 94583"]}, "phone": "+19258319515", "display_phone": "(925) 831-9515", "distance": 20798.853682352106}, {"id": "wQm1FDUkLlqHRj6eQbPsBg", "alias": "safeway-dublin-5", "name": "Safeway", "image_url": "https://s3-media3.fl.yelpcdn.com/bphoto/6T9SstvpI8ciq8LlGjL2ow/o.jpg", "is_closed": false, "url": "https://www.yelp.com/biz/safeway-dublin-5?adjust_creative=xeSzjzfHY0IaghaPzcqsFA&utm_campaign=yelp_api_v3&utm_medium=api_v3_business_search&utm_source=xeSzjzfHY0IaghaPzcqsFA", "review_count": 138, "categories": [{"alias": "grocery", "title": "Grocery"}], "rating": 2.5, "coordinates": {"latitude": 37.7060094, "longitude": -121.9273886}, "transactions": ["pickup"], "price": "$$", "location": {"address1": "7499 Dublin Blvd", "address2": "", "address3": "", "city": "Dublin", "zip_code": "94568", "country": "US", "state": "CA", "display_address": ["7499 Dublin Blvd", "Dublin, CA 94568"]}, "phone": "+19255564034", "display_phone": "(925) 556-4034", "distance": 13961.593399189494}, {"id": "iR9FDFTEQpKEU9Wo7w_3tw", "alias": "eddie-papas-american-hangout-pleasanton-3", "name": "Eddie Papas American Hangout", "image_url": "https://s3-media4.fl.yelpcdn.com/bphoto/pFbfQ4eXTIUPR9RcpHC-MQ/o.jpg", "is_closed": false, "url": "https://www.yelp.com/biz/eddie-papas-american-hangout-pleasanton-3?adjust_creative=xeSzjzfHY0IaghaPzcqsFA&utm_campaign=yelp_api_v3&utm_medium=api_v3_business_search&utm_source=xeSzjzfHY0IaghaPzcqsFA", "review_count": 1212, "categories": [{"alias": "newamerican", "title": "American (New)"}, {"alias": "bars", "title": "Bars"}, {"alias": "armenian", "title": "Armenian"}], "rating": 3.5, "coordinates": {"latitude": 37.6934542, "longitude": -121.9033375}, "transactions": ["delivery", "pickup"], "price": "$$", "location": {"address1": "4889 Hopyard Rd", "address2": "", "address3": "", "city": "Pleasanton", "zip_code": "94588", "country": "US", "state": "CA", "display_address": ["4889 Hopyard Rd", "Pleasanton, CA 94588"]}, "phone": "+19254696266", "display_phone": "(925) 469-6266", "distance": 11592.29259841514}, {"id": "h8IQD-FW3kbFVzFgREXM3A", "alias": "the-habit-burger-grill-san-ramon", "name": "The Habit Burger Grill", "image_url": "https://s3-media1.fl.yelpcdn.com/bphoto/wzO9VrbZvLppxrY1waR4dA/o.jpg", "is_closed": false, "url": "https://www.yelp.com/biz/the-habit-burger-grill-san-ramon?adjust_creative=xeSzjzfHY0IaghaPzcqsFA&utm_campaign=yelp_api_v3&utm_medium=api_v3_business_search&utm_source=xeSzjzfHY0IaghaPzcqsFA", "review_count": 397, "categories": [{"alias": "burgers", "title": "Burgers"}, {"alias": "salad", "title": "Salad"}, {"alias": "sandwiches", "title": "Sandwiches"}], "rating": 3.0, "coordinates": {"latitude": 37.778764079586196, "longitude": -121.96950238650555}, "transactions": ["delivery"], "price": "$", "location": {"address1": "3121 Crow Canyon Pl.", "address2": "#D", "address3": "", "city": "San Ramon", "zip_code": "94583", "country": "US", "state": "CA", "display_address": ["3121 Crow Canyon Pl.", "#D", "San Ramon, CA 94583"]}, "phone": "+19253559672", "display_phone": "(925) 355-9672", "distance": 20582.444717042676}, {"id": "02ueACFl6FGXIfvQsxIFPA", "alias": "the-habit-burger-grill-dublin", "name": "The Habit Burger Grill", "image_url": "https://s3-media1.fl.yelpcdn.com/bphoto/AoMLtyPnmOmoZkRQhNbblQ/o.jpg", "is_closed": false, "url": "https://www.yelp.com/biz/the-habit-burger-grill-dublin?adjust_creative=xeSzjzfHY0IaghaPzcqsFA&utm_campaign=yelp_api_v3&utm_medium=api_v3_business_search&utm_source=xeSzjzfHY0IaghaPzcqsFA", "review_count": 348, "categories": [{"alias": "burgers", "title": "Burgers"}, {"alias": "salad", "title": "Salad"}, {"alias": "sandwiches", "title": "Sandwiches"}], "rating": 3.5, "coordinates": {"latitude": 37.708726, "longitude": -121.930376}, "transactions": ["delivery"], "price": "$", "location": {"address1": "7295 Amador Plz Rd", "address2": "", "address3": "", "city": "Dublin", "zip_code": "94568", "country": "US", "state": "CA", "display_address": ["7295 Amador Plz Rd", "Dublin, CA 94568"]}, "phone": "+19258759648", "display_phone": "(925) 875-9648", "distance": 14288.520357499328}]